Census year,Block ID,Property ID,Base property ID,Building address,CLUE small area,Trading name,Business address,Industry (ANZSIC4) code,Industry (ANZSIC4) description,Seating type,Number of seats,Longitude,Latitude,
2024,1,611394,611394,545-557 Flinders Street MELBOURNE VIC 3000,Melbourne (CBD),Noulboo Korean chicken & pork,551 Flinders Street MELBOURNE VIC 3000,4511,Cafes and Restaurants,Seats - Indoor,46,144.9565184,-37.82099397,
2024,6,578319,573333,Alfred Deakin Building Federation Square 2 Swanston Street MELBOURNE VIC 3000,Melbourne (CBD),The Fresh Collective,"Tenancy 8, Alfred Deakin Building Federation Square 2 Swanston Street MELBOURNE VIC 3000",4511,Cafes and Restaurants,Seats - Outdoor,60,144.9699175,-37.81784465,
2024,6,578324,573333,"Tenancy 29, Transport Federation Square 2 Swanston Street MELBOURNE VIC 3000",Melbourne (CBD),Taxi Kitchen,"Tenancy 29, Level 1 2 Swanston Street MELBOURNE VIC 3000",4511,Cafes and Restaurants,Seats - Indoor,160,144.9699175,-37.81784465,
2024,11,103957,103957,517-537 Flinders Lane MELBOURNE VIC 3000,Melbourne (CBD),Mr Huang Jin,22 Katherine Place MELBOURNE VIC 3000,4511,Cafes and Restaurants,Seats - Indoor,34,144.9566017,-37.81988483,
2024,11,103957,103957,517-537 Flinders Lane MELBOURNE VIC 3000,Melbourne (CBD),Romo Pizza Bar,21 Katherine Place MELBOURNE VIC 3000,4511,Cafes and Restaurants,Seats - Indoor,25,144.9566017,-37.81988483,
2024,11,103991,103991,520-522 Flinders Street MELBOURNE VIC 3000,Melbourne (CBD),Kebab Kingz Melbourne Pty Ltd,Ground 520-522 Flinders Street MELBOURNE VIC 3000,4511,Cafes and Restaurants,Seats - Indoor,18,144.9568837,-37.82024345,
2024,11,105294,105294,27-31 King Street MELBOURNE VIC 3000,Melbourne (CBD),State Of Grace,"Basement, Ground, Mezzanine & Level 5 27 King Street MELBOURNE VIC 3000",4511,Cafes and Restaurants,Seats - Indoor,174,144.9569485,-37.81975559,
2024,11,108972,108972,10-22 Spencer Street MELBOURNE VIC 3000,Melbourne (CBD),Stubby Cafe Bar & Restaurant,Lobby 16 Spencer Street MELBOURNE VIC 3000,4511,Cafes and Restaurants,Seats - Indoor,50,144.9552421,-37.82050677,
2024,12,103995,103995,492-500 Flinders Street MELBOURNE VIC 3000,Melbourne (CBD),K-Rib By Kass Kass,"Shop 1, 500 Flinders Street MELBOURNE VIC 3000",4511,Cafes and Restaurants,Seats - Indoor,56,144.9578288,-37.81999599,
2024,12,103998,103998,452-470 Flinders Street MELBOURNE VIC 3000,Melbourne (CBD),Upstanding Citizens Flinders,"Shop 3-4, Ground 452 Flinders Street MELBOURNE VIC 3000",4511,Cafes and Restaurants,Seats - Indoor,40,144.9586011,-37.81946849,
2024,12,103999,103999,The Clarion Gateway Apartments 1-13 William Street MELBOURNE VIC 3000,Melbourne (CBD),Williams Bar & Café,Restaurant 1 William Street MELBOURNE VIC 3000,4511,Cafes and Restaurants,Seats - Outdoor,16,144.9595105,-37.81943285,
2024,12,110091,110091,15-33 William Street MELBOURNE VIC 3000,Melbourne (CBD),Mokaa,"Shop 3-4, 15 William Street MELBOURNE VIC 3000",4511,Cafes and Restaurants,Seats - Indoor,16,144.9591875,-37.8192157,
2024,12,110091,110091,15-33 William Street MELBOURNE VIC 3000,Melbourne (CBD),Sergy Girl,Part Ground 15-33 William Street MELBOURNE VIC 3000,4511,Cafes and Restaurants,Seats - Indoor,22,144.9591875,-37.8192157,
2024,13,106438,106438,14-40 Market Street MELBOURNE VIC 3000,Melbourne (CBD),Simpsons Burgers,Part Ground 40 Market Street MELBOURNE VIC 3000,4511,Cafes and Restaurants,Seats - Outdoor,14,144.9611339,-37.81848796,
2024,13,108060,108060,19-35 Queen Street MELBOURNE VIC 3000,Melbourne (CBD),Koffi Bar,Part Ground 31 Queen Street MELBOURNE VIC 3000,4511,Cafes and Restaurants,Seats - Indoor,36,144.9617799,-37.81822749,
2024,13,108060,108060,19-35 Queen Street MELBOURNE VIC 3000,Melbourne (CBD),Koffi Bar,Part Ground 31 Queen Street MELBOURNE VIC 3000,4511,Cafes and Restaurants,Seats - Outdoor,16,144.9617799,-37.81822749,
2024,14,103167,103167,11-15 Elizabeth Street MELBOURNE VIC 3000,Melbourne (CBD),McDonalds,11-15 Elizabeth Street MELBOURNE VIC 3000,4511,Cafes and Restaurants,Seats - Indoor,130,144.9644995,-37.81782922,
2024,14,103171,103171,27-29 Elizabeth Street MELBOURNE VIC 3000,Melbourne (CBD),Nando's,Ground 27-29 Elizabeth Street MELBOURNE VIC 3000,4511,Cafes and Restaurants,Seats - Indoor,40,144.9643684,-37.81754523,
2024,14,103172,103172,31-39 Elizabeth Street MELBOURNE VIC 3000,Melbourne (CBD),Oh! Pho,"Shop 5, 35 Elizabeth Street MELBOURNE VIC 3000",4511,Cafes and Restaurants,Seats - Indoor,73,144.9643315,-37.81741877,
2024,14,103948,103948,325-331 Flinders Lane MELBOURNE VIC 3000,Melbourne (CBD),Cuff,Part Ground 325 Flinders Lane MELBOURNE VIC 3000,4511,Cafes and Restaurants,Seats - Indoor,100,144.963491,-37.81775826,
2024,14,103948,103948,325-331 Flinders Lane MELBOURNE VIC 3000,Melbourne (CBD),Cuff,Part Ground 325 Flinders Lane MELBOURNE VIC 3000,4511,Cafes and Restaurants,Seats - Outdoor,20,144.963491,-37.81775826,
2024,14,103950,103950,335-339 Flinders Lane MELBOURNE VIC 3000,Melbourne (CBD),Magic Momo Kafe On Flinders,Part Ground 335 Flinders Lane MELBOURNE VIC 3000,4511,Cafes and Restaurants,Seats - Indoor,75,144.9632258,-37.81784765,
2024,15,103326,103326,Carlow House 281-291 Flinders Lane MELBOURNE VIC 3000,Melbourne (CBD),Sal's Authentic New York Pizza,"Shop 1, 289 Flinders Lane MELBOURNE VIC 3000",4511,Cafes and Restaurants,Seats - Indoor,32,144.9649678,-37.81719024,
2024,15,103328,103328,River View House 274-282 Flinders Street MELBOURNE VIC 3000,Melbourne (CBD),Desi Adda,10 Elizabeth Street MELBOURNE VIC 3000,4511,Cafes and Restaurants,Seats - Indoor,30,144.965095,-37.81763649,
2024,15,103942,103942,253-265 Flinders Lane MELBOURNE VIC 3000,Melbourne (CBD),The Journal Cafe,Part Ground 253-265 Flinders Lane MELBOURNE VIC 3000,4511,Cafes and Restaurants,Seats - Outdoor,14,144.9659028,-37.81706291,
2024,15,103942,103942,253-265 Flinders Lane MELBOURNE VIC 3000,Melbourne (CBD),Mock Turtle Degraves,34 Degraves Street MELBOURNE VIC 3000,4511,Cafes and Restaurants,Seats - Outdoor,12,144.9659028,-37.81706291,
2024,15,103942,103942,253-265 Flinders Lane MELBOURNE VIC 3000,Melbourne (CBD),Cafe Andiamo,36-38 Degraves Street MELBOURNE VIC 3000,4511,Cafes and Restaurants,Seats - Outdoor,68,144.9659028,-37.81706291,
2024,15,103943,103943,Punt Hill Apartments 267-275 Flinders Lane MELBOURNE VIC 3000,Melbourne (CBD),Pa Tong,271-273 Flinders Lane MELBOURNE VIC 3000,4511,Cafes and Restaurants,Seats - Indoor,78,144.9654844,-37.81710105,
2024,15,104010,104010,The Empire Apartments 256-268 Flinders Street MELBOURNE VIC 3000,Melbourne (CBD),Grill'd,15 Degraves Street MELBOURNE VIC 3000,4511,Cafes and Restaurants,Seats - Indoor,10,144.9656263,-37.8176078,
2024,15,104010,104010,The Empire Apartments 256-268 Flinders Street MELBOURNE VIC 3000,Melbourne (CBD),II Tempo,11 Degraves Street MELBOURNE VIC 3000,4511,Cafes and Restaurants,Seats - Indoor,45,144.9656263,-37.8176078,
2024,16,103935,103935,175-177 Flinders Lane MELBOURNE VIC 3000,Melbourne (CBD),Kisume,"Basement, Ground & Level 1 175-177 Flinders Lane MELBOURNE VIC 3000",4511,Cafes and Restaurants,Seats - Indoor,150,144.9686768,-37.81618641,
2024,16,104017,104017,194-196 Flinders Street MELBOURNE VIC 3000,Melbourne (CBD),Toffee Cafe,Part Ground 196 Flinders Street MELBOURNE VIC 3000,4511,Cafes and Restaurants,Seats - Indoor,20,144.9681433,-37.81673488,
2024,16,104019,104019,164-170 Flinders Street MELBOURNE VIC 3000,Melbourne (CBD),Movida Next Door,"Shop 3-4, 164 Flinders Street MELBOURNE VIC 3000",4511,Cafes and Restaurants,Seats - Indoor,30,144.9690862,-37.81670922,
2024,16,104019,104019,164-170 Flinders Street MELBOURNE VIC 3000,Melbourne (CBD),Movida,"Shop 5, 1 Hosier Lane MELBOURNE VIC 3000",4511,Cafes and Restaurants,Seats - Indoor,70,144.9690862,-37.81670922,
2024,16,108532,108532,Cavendish House Apartments 27-37 Russell Street MELBOURNE VIC 3000,Melbourne (CBD),Gimlet,Ground 33 Russell Street MELBOURNE VIC 3000,4511,Cafes and Restaurants,Seats - Indoor,120,144.9692478,-37.81598753,
2024,17,103591,103591,1-9 Exhibition Street MELBOURNE VIC 3000,Melbourne (CBD),Le Petit Cafe,"Shop 4, 9 Exhibition Street MELBOURNE VIC 3000",4511,Cafes and Restaurants,Seats - Indoor,14,144.9720411,-37.81584246,
2024,17,103592,103592,11-37 Exhibition Street MELBOURNE VIC 3000,Melbourne (CBD),The French Brasserie,2 Malthouse Lane MELBOURNE VIC 3000,4511,Cafes and Restaurants,Seats - Indoor,85,144.9717262,-37.81546152,
2024,17,103592,103592,11-37 Exhibition Street MELBOURNE VIC 3000,Melbourne (CBD),The Fair Trader Cafe,Part Ground 11 Exhibition Street MELBOURNE VIC 3000,4511,Cafes and Restaurants,Seats - Indoor,100,144.9717262,-37.81546152,
2024,17,103592,103592,11-37 Exhibition Street MELBOURNE VIC 3000,Melbourne (CBD),Grill'd,83 Flinders Lane MELBOURNE VIC 3000,4511,Cafes and Restaurants,Seats - Outdoor,36,144.9717262,-37.81546152,
2024,17,103920,103920,87-89 Flinders Lane MELBOURNE VIC 3000,Melbourne (CBD),Trinket,Part Gnd & Bmt 87 Flinders Lane MELBOURNE VIC 3000,4511,Cafes and Restaurants,Seats - Indoor,80,144.9713925,-37.81542975,
2024,17,110277,110277,11-15 Duckboard Place MELBOURNE VIC 3000,Melbourne (CBD),Lee Ho Fook,11-15 Duckboard Place MELBOURNE VIC 3000,4511,Cafes and Restaurants,Seats - Indoor,70,144.9713154,-37.81559017,
2024,18,103918,103918,61-73 Flinders Lane MELBOURNE VIC 3000,Melbourne (CBD),Cecconi's Flinders Lane,61 Flinders Lane MELBOURNE VIC 3000,4511,Cafes and Restaurants,Seats - Outdoor,12,144.9725123,-37.81506474,
2024,18,111021,111021,55 Flinders Lane MELBOURNE VIC 3000,Melbourne (CBD),Tom Thumb Espresso,55 Flinders Lane MELBOURNE VIC 3000,4511,Cafes and Restaurants,Seats - Indoor,15,144.9728352,-37.81485549,
2024,18,111021,111021,55 Flinders Lane MELBOURNE VIC 3000,Melbourne (CBD),Tom Thumb Espresso,55 Flinders Lane MELBOURNE VIC 3000,4511,Cafes and Restaurants,Seats - Outdoor,10,144.9728352,-37.81485549,
2024,18,111071,111071,46-74 Flinders Street MELBOURNE VIC 3000,Melbourne (CBD),Elchi,68 Flinders Street MELBOURNE VIC 3000,4511,Cafes and Restaurants,Seats - Indoor,50,144.9727209,-37.8154618,
2024,18,111071,111071,46-74 Flinders Street MELBOURNE VIC 3000,Melbourne (CBD),Little Bang Espresso,Part Level 22 8 Exhibition Street MELBOURNE VIC 3000,4511,Cafes and Restaurants,Seats - Indoor,50,144.9727209,-37.8154618,
2024,21,579252,579252,559-587 Collins Street MELBOURNE VIC 3000,Melbourne (CBD),Spudbar Collins Street 567,"Tenancy 7B, Ground 567 Collins Street MELBOURNE VIC 3000",4511,Cafes and Restaurants,Seats - Indoor,16,144.9557275,-37.81902044,
2024,21,606461,606461,607-623 Collins Street MELBOURNE VIC 3000,Melbourne (CBD),Krispy Kreme,Shop 607 Collins Street MELBOURNE VIC 3000,4511,Cafes and Restaurants,Seats - Outdoor,4,144.95469,-37.81929311,
2024,22,102102,102102,471-485 Collins Street MELBOURNE VIC 3000,Melbourne (CBD),Greta,"Tenancy 5-6, Ground 477 Collins Street MELBOURNE VIC 3000",4511,Cafes and Restaurants,Seats - Indoor,65,144.9585483,-37.8184145,
2024,22,705123,102104,Podium Rialto 525 Collins Street MELBOURNE VIC 3000,Melbourne (CBD),Square One,"Shop 1, Podium 525 Collins Street MELBOURNE VIC 3000",4511,Cafes and Restaurants,Seats - Indoor,120,144.9575385,-37.81866171,
2024,22,705123,102104,Podium Rialto 525 Collins Street MELBOURNE VIC 3000,Melbourne (CBD),BAZA MELBOURNE,"Shop 10, Podium 525 Collins Street MELBOURNE VIC 3000",4511,Cafes and Restaurants,Seats - Indoor,25,144.9575385,-37.81866171,
2024,22,705123,102104,Podium Rialto 525 Collins Street MELBOURNE VIC 3000,Melbourne (CBD),Rustica,"Shop 11, Podium 525 Collins Street MELBOURNE VIC 3000",4511,Cafes and Restaurants,Seats - Indoor,21,144.9575385,-37.81866171,
2024,22,705127,102104,South Tower Rialto 525 Collins Street MELBOURNE VIC 3000,Melbourne (CBD),Vue de monde / The Lui Bar,Level 55S 525 Collins Street MELBOURNE VIC 3000,4511,Cafes and Restaurants,Seats - Indoor,30,144.9575385,-37.81866171,
2024,22,110092,110092,35-47 William Street MELBOURNE VIC 3000,Melbourne (CBD),@  Cafe 45,Part Ground 45 William Street MELBOURNE VIC 3000,4511,Cafes and Restaurants,Seats - Indoor,25,144.9591221,-37.81858017,
2024,23,102094,102094,389-399 Collins Street MELBOURNE VIC 3000,Melbourne (CBD),Collins Coffee House,Part Ground 395 Collins Street MELBOURNE VIC 3000,4511,Cafes and Restaurants,Seats - Indoor,50,144.961439,-37.8173062,
2024,23,102096,102096,405-407 Collins Street MELBOURNE VIC 3000,Melbourne (CBD),Bluebag,"Part Ground, Bmt & Part Mezzanine 405-407 Collins Street MELBOURNE VIC 3000",4511,Cafes and Restaurants,Seats - Indoor,20,144.9611131,-37.81745676,
2024,23,708081,102100,441-447 Collins Street MELBOURNE VIC 3000,Melbourne (CBD),Axil Coffee Roasters,"Shop 6, Ground 441 Collins Street MELBOURNE VIC 3000",4511,Cafes and Restaurants,Seats - Indoor,45,144.9598686,-37.8180082,
2024,23,708084,102100,433 Collins Street MELBOURNE VIC 3000,Melbourne (CBD),First Love Coffee Collins St,"Shop 4, Ground 433 Collins Street MELBOURNE VIC 3000",4511,Cafes and Restaurants,Seats - Outdoor,16,144.9598686,-37.8180082,
2024,24,102089,102089,327-343 Collins Street MELBOURNE VIC 3000,Melbourne (CBD),Strozzi Restaurant,Part Ground 333 Collins Street MELBOURNE VIC 3000,4511,Cafes and Restaurants,Seats - Indoor,90,144.9632537,-37.81706704,
2024,24,102091,102091,351-357 Collins Street MELBOURNE VIC 3000,Melbourne (CBD),Vapiano,"Tenancy 3-5, 332-340 Flinders Lane MELBOURNE VIC 3000",4511,Cafes and Restaurants,Seats - Indoor,400,144.9627888,-37.81722704,
2024,24,102092,102092,359-373 Collins Street MELBOURNE VIC 3000,Melbourne (CBD),Cha Ching Eatery,"Tenancy 3, 348 Flinders Lane MELBOURNE VIC 3000",4511,Cafes and Restaurants,Seats - Indoor,50,144.9624418,-37.81728432,
2024,24,102092,102092,359-373 Collins Street MELBOURNE VIC 3000,Melbourne (CBD),Falcon 367,"Tenancy G5, 367 Collins Street MELBOURNE VIC 3000",4511,Cafes and Restaurants,Seats - Indoor,52,144.9624418,-37.81728432,
2024,24,110763,110763,The Mark On Collins Apartments 319-325 Collins Street MELBOURNE VIC 3000,Melbourne (CBD),Mensousai Mugen,11 Bligh Place MELBOURNE VIC 3000,4511,Cafes and Restaurants,Seats - Indoor,35,144.9636498,-37.81686635,
2024,24,110764,110764,310 Flinders Lane MELBOURNE VIC 3000,Melbourne (CBD),Kim Sing Restaurant,Gnd & Bmt 310 Flinders Lane MELBOURNE VIC 3000,4511,Cafes and Restaurants,Seats - Indoor,120,144.9636828,-37.81726468,
2024,25,101788,101788,258-260 Flinders Lane MELBOURNE VIC 3000,Melbourne (CBD),Cafe Vicolino,Shop 17 & 19 Centre Place MELBOURNE VIC 3000,4511,Cafes and Restaurants,Seats - Indoor,44,144.9654744,-37.81664468,
2024,25,101789,101789,252-254 Flinders Lane MELBOURNE VIC 3000,Melbourne (CBD),Ojika Japanese,6 Centre Place MELBOURNE VIC 3000,4511,Cafes and Restaurants,Seats - Outdoor,4,144.9655965,-37.8166033,
2024,25,102079,102079,221-231 Collins Street MELBOURNE VIC 3000,Melbourne (CBD),Three Drops Espresso,"Shop 6, Ground 227 Collins Street MELBOURNE VIC 3000",4511,Cafes and Restaurants,Seats - Indoor,6,144.9663304,-37.81584476,
2024,25,102083,102083,251-257 Collins Street MELBOURNE VIC 3000,Melbourne (CBD),Brunetti Oro Flinders Lane,Ground 250 Flinders Lane MELBOURNE VIC 3000,4511,Cafes and Restaurants,Seats - Indoor,300,144.965651,-37.81635062,
2024,25,102083,102083,251-257 Collins Street MELBOURNE VIC 3000,Melbourne (CBD),Brunetti Oro Flinders Lane,Ground 250 Flinders Lane MELBOURNE VIC 3000,4511,Cafes and Restaurants,Seats - Outdoor,20,144.965651,-37.81635062,
2024,26,102073,102073,141-165 Collins Street MELBOURNE VIC 3000,Melbourne (CBD),Liminal Melbourne,Lobby 161 Collins Street MELBOURNE VIC 3000,4511,Cafes and Restaurants,Seats - Indoor,112,144.9687553,-37.81543178,
2024,26,102078,102078,189 Collins Street MELBOURNE VIC 3000,Melbourne (CBD),Box Seafood Restaurant,189 Collins Street MELBOURNE VIC 3000,4511,Cafes and Restaurants,Seats - Indoor,80,144.9677065,-37.81546677,
2024,26,109418,109418,199-209 Collins Street MELBOURNE VIC 3000,Melbourne (CBD),Lobby Lounge,Part 205 Collins Street MELBOURNE VIC 3000,4511,Cafes and Restaurants,Seats - Indoor,70,144.9674303,-37.81584777,
2024,28,102058,102058,11 Collins Street MELBOURNE VIC 3000,Melbourne (CBD),Mamasita,Level 1 11 Collins Street MELBOURNE VIC 3000,4511,Cafes and Restaurants,Seats - Indoor,70,144.9734622,-37.81377997,
2024,28,102061,102060,Collins Tower 25-45 Collins Street MELBOURNE VIC 3000,Melbourne (CBD),Dame Melbourne,"Shop 3, 45 Collins Street MELBOURNE VIC 3000",4511,Cafes and Restaurants,Seats - Indoor,60,144.972628,-37.81430615,
2024,28,102061,102060,Collins Tower 25-45 Collins Street MELBOURNE VIC 3000,Melbourne (CBD),Kenzan Japanese Restaurant,"Shop 13-17, 45 Collins Street MELBOURNE VIC 3000",4511,Cafes and Restaurants,Seats - Indoor,50,144.972628,-37.81430615,
2024,32,102117,102117,500-514 Collins Street MELBOURNE VIC 3000,Melbourne (CBD),Kantina Kartel,"Shop 6, 500 Collins Street MELBOURNE VIC 3000",4511,Cafes and Restaurants,Seats - Indoor,70,144.9574732,-37.81753383,
2024,32,102119,102119,468-478 Collins Street MELBOURNE VIC 3000,Melbourne (CBD),At The George,"Shop 5, Ground 470 Collins Street MELBOURNE VIC 3000",4511,Cafes and Restaurants,Seats - Outdoor,12,144.9583339,-37.81753764,
2024,32,105940,105940,505-515 Little Collins Street MELBOURNE VIC 3000,Melbourne (CBD),Saving Grace,30 Church Lane MELBOURNE VIC 3000,4511,Cafes and Restaurants,Seats - Outdoor,30,144.9577989,-37.81719649,
2024,32,105940,105940,505-515 Little Collins Street MELBOURNE VIC 3000,Melbourne (CBD),Saving Grace,30 Church Lane MELBOURNE VIC 3000,4511,Cafes and Restaurants,Seats - Indoor,50,144.9577989,-37.81719649,
2024,33,100729,100729,Metro Apartments Banks Place 18-20 Bank Place MELBOURNE VIC 3000,Melbourne (CBD),Curry Vault,18 Bank Place MELBOURNE VIC 3000,4511,Cafes and Restaurants,Seats - Indoor,60,144.9605225,-37.81642893,
2024,33,102123,102123,446-452 Collins Street MELBOURNE VIC 3000,Melbourne (CBD),Macchiato On Collins,"Unit 2, Ground 446-452 Collins Street MELBOURNE VIC 3000",4511,Cafes and Restaurants,Seats - Indoor,34,144.959442,-37.81730302,
2024,33,102124,102124,430-442 Collins Street MELBOURNE VIC 3000,Melbourne (CBD),People's Coffee,Part Ground 440 Collins Street MELBOURNE VIC 3000,4511,Cafes and Restaurants,Seats - Indoor,60,144.9597623,-37.81703239,
2024,33,105935,105935,431 Little Collins Street MELBOURNE VIC 3000,Melbourne (CBD),Tengu Poke,431 Little Collins Street MELBOURNE VIC 3000,4511,Cafes and Restaurants,Seats - Indoor,26,144.9603968,-37.81629333,
2024,33,105936,105936,433 Little Collins Street MELBOURNE VIC 3000,Melbourne (CBD),Dikstein's Corner Bar,433 Little Collins Street MELBOURNE VIC 3000,4511,Cafes and Restaurants,Seats - Outdoor,36,144.9603413,-37.81631093,
2024,33,105937,105937,435-443 Little Collins Street MELBOURNE VIC 3000,Melbourne (CBD),Otherside Coffee,"Shop 1, Ground 435 Little Collins Street MELBOURNE VIC 3000",4511,Cafes and Restaurants,Seats - Indoor,4,144.9600859,-37.81638558,
2024,33,105937,105937,435-443 Little Collins Street MELBOURNE VIC 3000,Melbourne (CBD),Intimo,"Shop 3-4, 439-441 Little Collins Street MELBOURNE VIC 3000",4511,Cafes and Restaurants,Seats - Indoor,50,144.9600859,-37.81638558,
2024,33,105938,105938,457-469 Little Collins Street MELBOURNE VIC 3000,Melbourne (CBD),Korean Healthy Food BBQ Box,Part Ground 459 Little Collins Street MELBOURNE VIC 3000,4511,Cafes and Restaurants,Seats - Outdoor,14,144.95955,-37.81660734,
2024,33,105938,105938,457-469 Little Collins Street MELBOURNE VIC 3000,Melbourne (CBD),Korean Healthy Food BBQ Box,Part Ground 459 Little Collins Street MELBOURNE VIC 3000,4511,Cafes and Restaurants,Seats - Indoor,36,144.95955,-37.81660734,
2024,33,102131,110666,394 Collins Street MELBOURNE VIC 3000,Melbourne (CBD),The Bank On Collins,Mezzanine 394 Collins Street MELBOURNE VIC 3000,4511,Cafes and Restaurants,Seats - Indoor,100,144.9610454,-37.81666775,
2024,34,102133,102133,360 Collins Street MELBOURNE VIC 3000,Melbourne (CBD),Code Black,"Shop 8A, 360 Collins Street MELBOURNE VIC 3000",4511,Cafes and Restaurants,Seats - Indoor,30,144.9621844,-37.81615528,
2024,34,103176,103176,97-103 Elizabeth Street MELBOURNE VIC 3000,Melbourne (CBD),Disciples of Epicurus,16 Equitable Place MELBOURNE VIC 3000,4511,Cafes and Restaurants,Seats - Outdoor,22,144.9634979,-37.81592157,
2024,34,103176,103176,97-103 Elizabeth Street MELBOURNE VIC 3000,Melbourne (CBD),Disciples of Epicurus,16 Equitable Place MELBOURNE VIC 3000,4511,Cafes and Restaurants,Seats - Indoor,44,144.9634979,-37.81592157,
2024,34,103176,103176,97-103 Elizabeth Street MELBOURNE VIC 3000,Melbourne (CBD),Betty's Burgers,97 Elizabeth Street MELBOURNE VIC 3000,4511,Cafes and Restaurants,Seats - Indoor,88,144.9634979,-37.81592157,
2024,34,105929,105929,335-349 Little Collins Street MELBOURNE VIC 3000,Melbourne (CBD),Momo Central,347 Little Collins Street MELBOURNE VIC 3000,4511,Cafes and Restaurants,Seats - Outdoor,6,144.9632938,-37.81554941,
2024,34,105929,105929,335-349 Little Collins Street MELBOURNE VIC 3000,Melbourne (CBD),The Workers Foodroom,349 Little Collins Street MELBOURNE VIC 3000,4511,Cafes and Restaurants,Seats - Indoor,8,144.9632938,-37.81554941,
2024,34,105930,105930,377-379 Little Collins Street MELBOURNE VIC 3000,Melbourne (CBD),Quando Quando Cucina & Bar,10 Collins Way MELBOURNE VIC 3000,4511,Cafes and Restaurants,Seats - Outdoor,6,144.9624391,-37.81585501,
2024,34,110669,110669,353-359 Little Collins Street MELBOURNE VIC 3000,Melbourne (CBD),11 Inch Pizza,"Shop 6B, 353 Little Collins Street MELBOURNE VIC 3000",4511,Cafes and Restaurants,Seats - Indoor,22,144.9629843,-37.81570426,
2024,34,110669,110669,353-359 Little Collins Street MELBOURNE VIC 3000,Melbourne (CBD),Dodee Paidang Thai Bar And Cafe,Basement 2A 25 Equitable Place MELBOURNE VIC 3000,4511,Cafes and Restaurants,Seats - Indoor,80,144.9629843,-37.81570426,
2024,34,110669,110669,353-359 Little Collins Street MELBOURNE VIC 3000,Melbourne (CBD),Ilza,"Shop 5B, 353 Little Collins Street MELBOURNE VIC 3000",4511,Cafes and Restaurants,Seats - Outdoor,8,144.9629843,-37.81570426,
2024,35,101098,101098,28-32 Block Place MELBOURNE VIC 3000,Melbourne (CBD),Vespa Rossa,30-32 Block Place MELBOURNE VIC 3000,4511,Cafes and Restaurants,Seats - Indoor,88,144.9644661,-37.81529155,
2024,35,102141,102141,280-292 Collins Street MELBOURNE VIC 3000,Melbourne (CBD),Le Petit Chateau,"Shop 9-10, Block Arcade MELBOURNE VIC 3000",4511,Cafes and Restaurants,Seats - Indoor,24,144.9644283,-37.81561893,
2024,35,105928,105928,317-321 Little Collins Street MELBOURNE VIC 3000,Melbourne (CBD),Casa Frida,29 Block Place MELBOURNE VIC 3000,4511,Cafes and Restaurants,Seats - Indoor,52,144.9642254,-37.81528948,
2024,35,109268,109268,Capitol Arcade 109-117 Swanston Street MELBOURNE VIC 3000,Melbourne (CBD),Momo station,"Shop 12, 115 Swanston Street MELBOURNE VIC 3000",4511,Cafes and Restaurants,Seats - Outdoor,18,144.9657773,-37.81507697,
2024,35,109268,109268,Capitol Arcade 109-117 Swanston Street MELBOURNE VIC 3000,Melbourne (CBD),Momo station,"Shop 12, 115 Swanston Street MELBOURNE VIC 3000",4511,Cafes and Restaurants,Seats - Indoor,34,144.9657773,-37.81507697,
2024,36,102148,102148,184-192 Collins Street MELBOURNE VIC 3000,Melbourne (CBD),Bistrot d'Orsay,184 Collins Street MELBOURNE VIC 3000,4511,Cafes and Restaurants,Seats - Indoor,50,144.9672777,-37.81485585,
2024,37,709873,102161,95-109 Exhibition Street MELBOURNE VIC 3000,Melbourne (CBD),MORENA,85 Little Collins Street MELBOURNE VIC 3000,4511,Cafes and Restaurants,Seats - Indoor,46,144.9707226,-37.81360963,
2024,37,709873,102161,95-109 Exhibition Street MELBOURNE VIC 3000,Melbourne (CBD),Barra,89 Little Collins Street MELBOURNE VIC 3000,4511,Cafes and Restaurants,Seats - Indoor,36,144.9707226,-37.81360963,
2024,37,709873,102161,95-109 Exhibition Street MELBOURNE VIC 3000,Melbourne (CBD),Bowls Baby,97 Little Collins Street MELBOURNE VIC 3000,4511,Cafes and Restaurants,Seats - Outdoor,20,144.9707226,-37.81360963,
2024,37,709873,102161,95-109 Exhibition Street MELBOURNE VIC 3000,Melbourne (CBD),Farmer's Daughters,95 Exhibition Street MELBOURNE VIC 3000,4511,Cafes and Restaurants,Seats - Indoor,68,144.9707226,-37.81360963,
2024,37,709873,102161,95-109 Exhibition Street MELBOURNE VIC 3000,Melbourne (CBD),Maverick Coffee And Food,95 Little Collins Street MELBOURNE VIC 3000,4511,Cafes and Restaurants,Seats - Outdoor,18,144.9707226,-37.81360963,
2024,38,102172,102172,8 Collins Street MELBOURNE VIC 3000,Melbourne (CBD),Market Lane Coffee,Part Ground 8 Collins Street MELBOURNE VIC 3000,4511,Cafes and Restaurants,Seats - Outdoor,10,144.9732575,-37.81314231,
2024,38,108982,108982,93-101 Spring Street MELBOURNE VIC 3000,Melbourne (CBD),Coffee Exchange,9-11 Little Collins Street MELBOURNE VIC 3000,4511,Cafes and Restaurants,Seats - Outdoor,20,144.9731836,-37.81260038,
2024,38,108982,108982,93-101 Spring Street MELBOURNE VIC 3000,Melbourne (CBD),Coffee Exchange,9-11 Little Collins Street MELBOURNE VIC 3000,4511,Cafes and Restaurants,Seats - Indoor,30,144.9731836,-37.81260038,
2024,38,108982,108982,93-101 Spring Street MELBOURNE VIC 3000,Melbourne (CBD),Cafe Excello,Ground 1-3 Little Collins Street MELBOURNE VIC 3000,4511,Cafes and Restaurants,Seats - Outdoor,28,144.9731836,-37.81260038,
2024,38,108982,108982,93-101 Spring Street MELBOURNE VIC 3000,Melbourne (CBD),Cafe Excello,Ground 1-3 Little Collins Street MELBOURNE VIC 3000,4511,Cafes and Restaurants,Seats - Indoor,30,144.9731836,-37.81260038,
2024,41,105299,105299,131-137 King Street MELBOURNE VIC 3000,Melbourne (CBD),Saravanaa Bhavan Melbourne,Ground 1 131 King Street MELBOURNE VIC 3000,4511,Cafes and Restaurants,Seats - Indoor,96,144.9555039,-37.81708323,
2024,42,110095,101155,St James 555 Bourke Street MELBOURNE VIC 3000,Melbourne (CBD),Zuppa,510 Little Collins Street MELBOURNE VIC 3000,4511,Cafes and Restaurants,Seats - Outdoor,12,144.9578132,-37.81636534,
2024,42,110095,101155,St James 555 Bourke Street MELBOURNE VIC 3000,Melbourne (CBD),Brioche by Philip,500 Little Collins Street MELBOURNE VIC 3000,4511,Cafes and Restaurants,Seats - Indoor,25,144.9578132,-37.81636534,
2024,42,101158,101158,573-585 Bourke Street MELBOURNE VIC 3000,Melbourne (CBD),Ca Fe In Melbourne,Part Ground 575 Bourke Street MELBOURNE VIC 3000,4511,Cafes and Restaurants,Seats - Indoor,8,144.9566688,-37.81651426,
2024,42,101158,101158,573-585 Bourke Street MELBOURNE VIC 3000,Melbourne (CBD),Coffee Logic,Part Ground 575 Bourke Street MELBOURNE VIC 3000,4511,Cafes and Restaurants,Seats - Indoor,65,144.9566688,-37.81651426,
2024,42,101158,101158,573-585 Bourke Street MELBOURNE VIC 3000,Melbourne (CBD),Coffee Logic,Part Ground 575 Bourke Street MELBOURNE VIC 3000,4511,Cafes and Restaurants,Seats - Outdoor,24,144.9566688,-37.81651426,
2024,42,105950,105950,520-536 Little Collins Street MELBOURNE VIC 3000,Melbourne (CBD),Doju,"Shop 9, Ground 530 Little Collins Street MELBOURNE VIC 3000",4511,Cafes and Restaurants,Seats - Indoor,46,144.957088,-37.81686865,
2024,43,105953,105953,430-436 Little Collins Street MELBOURNE VIC 3000,Melbourne (CBD),Chancery Lane,Suite 3 & 5-7 Ground 430 Little Collins Street MELBOURNE VIC 3000,4511,Cafes and Restaurants,Seats - Indoor,300,144.9601101,-37.81596878,
2024,43,105953,105953,430-436 Little Collins Street MELBOURNE VIC 3000,Melbourne (CBD),LE SHOPPE,"Suite 8, Ground 430 Little Collins Street MELBOURNE VIC 3000",4511,Cafes and Restaurants,Seats - Indoor,15,144.9601101,-37.81596878,
2024,43,108068,108068,111-129 Queen Street MELBOURNE VIC 3000,Melbourne (CBD),CQ Bar,Part Level 1 113 Queen Street MELBOURNE VIC 3000,4511,Cafes and Restaurants,Seats - Indoor,100,144.9606366,-37.81581152,
2024,43,108068,108068,111-129 Queen Street MELBOURNE VIC 3000,Melbourne (CBD),CQ Bar,Part Level 1 113 Queen Street MELBOURNE VIC 3000,4511,Cafes and Restaurants,Seats - Outdoor,40,144.9606366,-37.81581152,
2024,43,108068,108068,111-129 Queen Street MELBOURNE VIC 3000,Melbourne (CBD),Roti Bar,416-418 Little Collins Street MELBOURNE VIC 3000,4511,Cafes and Restaurants,Seats - Indoor,68,144.9606366,-37.81581152,
2024,44,597186,101146,Galleria 385 Bourke Street MELBOURNE VIC 3000,Melbourne (CBD),Axil Coffee Roasters,Shop B01A 385 Bourke Street MELBOURNE VIC 3000,4511,Cafes and Restaurants,Seats - Indoor,65,144.9629442,-37.81491502,
2024,44,597186,101146,Galleria 385 Bourke Street MELBOURNE VIC 3000,Melbourne (CBD),Nosh,352 Little Collins Street MELBOURNE VIC 3000,4511,Cafes and Restaurants,Seats - Indoor,30,144.9629442,-37.81491502,
2024,44,101147,101147,393-413 Bourke Street MELBOURNE VIC 3000,Melbourne (CBD),Brothers & Co,"Shop 8, 364 Little Collins Street MELBOURNE VIC 3000",4511,Cafes and Restaurants,Seats - Indoor,50,144.9622078,-37.81510975,
2024,44,106374,106374,18-22 McKillop Street MELBOURNE VIC 3000,Melbourne (CBD),Hopetoun Bakehouse,Basement 20-22 McKillop Street MELBOURNE VIC 3000,4511,Cafes and Restaurants,Seats - Indoor,20,144.9618185,-37.81514598,
2024,45,105960,105960,The Hub Arcade 318-322 Little Collins Street MELBOURNE VIC 3000,Melbourne (CBD),Cafe Chokolait,"Shop 8-9, 318-322 Little Collins Street MELBOURNE VIC 3000",4511,Cafes and Restaurants,Seats - Indoor,20,144.964012,-37.81488174,
2024,45,105960,105960,The Hub Arcade 318-322 Little Collins Street MELBOURNE VIC 3000,Melbourne (CBD),Cafe Chokolait,"Shop 8-9, 318-322 Little Collins Street MELBOURNE VIC 3000",4511,Cafes and Restaurants,Seats - Outdoor,18,144.964012,-37.81488174,
2024,45,105960,105960,The Hub Arcade 318-322 Little Collins Street MELBOURNE VIC 3000,Melbourne (CBD),Gourmet Curry Hut,"Shop 3-4, 318-322 Little Collins Street MELBOURNE VIC 3000",4511,Cafes and Restaurants,Seats - Indoor,28,144.964012,-37.81488174,
2024,45,105961,105961,304-306 Little Collins Street MELBOURNE VIC 3000,Melbourne (CBD),Gordons Cafe and Bar,"Shop 4, 306 Little Collins Street MELBOURNE VIC 3000",4511,Cafes and Restaurants,Seats - Outdoor,8,144.9643486,-37.81473293,
2024,45,105961,105961,304-306 Little Collins Street MELBOURNE VIC 3000,Melbourne (CBD),Snow Moon,"Shop 6-7, 306 Little Collins Street MELBOURNE VIC 3000",4511,Cafes and Restaurants,Seats - Outdoor,10,144.9643486,-37.81473293,
2024,45,105961,105961,304-306 Little Collins Street MELBOURNE VIC 3000,Melbourne (CBD),Snow Moon,"Shop 6-7, 306 Little Collins Street MELBOURNE VIC 3000",4511,Cafes and Restaurants,Seats - Indoor,17,144.9643486,-37.81473293,
2024,45,109276,109276,147 Swanston Street MELBOURNE VIC 3000,Melbourne (CBD),Crossways Vegetarian And Vegan Restaurant,147 Swanston Street MELBOURNE VIC 3000,4511,Cafes and Restaurants,Seats - Outdoor,28,144.9656851,-37.81429892,
2024,45,109278,109278,155 Swanston Street MELBOURNE VIC 3000,Melbourne (CBD),Sushi Hub Swanston 2,155 Swanston Street MELBOURNE VIC 3000,4511,Cafes and Restaurants,Seats - Indoor,68,144.9656138,-37.81414396,
2024,46,105965,105965,166-186 Little Collins Street MELBOURNE VIC 3000,Melbourne (CBD),Il Bacaro Cucina E Bar,168-170 Little Collins Street MELBOURNE VIC 3000,4511,Cafes and Restaurants,Seats - Indoor,45,144.9678599,-37.81376794,
2024,46,109408,109408,166 Swanston Street MELBOURNE VIC 3000,Melbourne (CBD),Miiki Cake Studio,166 Swanston Street MELBOURNE VIC 3000,4511,Cafes and Restaurants,Seats - Indoor,22,144.9660676,-37.81379746,
2024,46,109415,109415,134-142 Swanston Street MELBOURNE VIC 3000,Melbourne (CBD),L'Incontro,140 Swanston Street MELBOURNE VIC 3000,4511,Cafes and Restaurants,Seats - Outdoor,100,144.966292,-37.81430553,
2024,46,109415,109415,134-142 Swanston Street MELBOURNE VIC 3000,Melbourne (CBD),L'Incontro,140 Swanston Street MELBOURNE VIC 3000,4511,Cafes and Restaurants,Seats - Indoor,20,144.966292,-37.81430553,
2024,47,101118,101118,131-135 Bourke Street MELBOURNE VIC 3000,Melbourne (CBD),Heng Thai Local Food Hall,Part Ground 131-135 Bourke Street MELBOURNE VIC 3000,4511,Cafes and Restaurants,Seats - Indoor,100,144.9694638,-37.81301069,
2024,47,101119,101119,The Metropolitan 137-141 Bourke Street MELBOURNE VIC 3000,Melbourne (CBD),Ishizuka,"Shop B1, Basement 139 Bourke Street MELBOURNE VIC 3000",4511,Cafes and Restaurants,Seats - Indoor,16,144.9691653,-37.81279907,
2024,47,602997,103597,SX121 121 Exhibition Street MELBOURNE VIC 3000,Melbourne (CBD),Sushi-Ya,"Shop E3, 12 Southern Cross Lane MELBOURNE VIC 3000",4511,Cafes and Restaurants,Seats - Indoor,56,144.9701092,-37.81281453,
2024,47,602997,103597,SX121 121 Exhibition Street MELBOURNE VIC 3000,Melbourne (CBD),Mad Mex,"Shop E5, 8 Southern Cross Lane MELBOURNE VIC 3000",4511,Cafes and Restaurants,Seats - Indoor,41,144.9701092,-37.81281453,
2024,48,101109,101109,39-43 Bourke Street MELBOURNE VIC 3000,Melbourne (CBD),Lane's Edge Cafe,39 Bourke Street MELBOURNE VIC 3000,4511,Cafes and Restaurants,Seats - Indoor,26,144.9720472,-37.81193572,
2024,48,101113,101113,59-63 Bourke Street MELBOURNE VIC 3000,Melbourne (CBD),Spaghetti Tree,Ground 59-63 Bourke Street MELBOURNE VIC 3000,4511,Cafes and Restaurants,Seats - Indoor,280,144.9715659,-37.81212537,
2024,48,101114,101114,65-71 Bourke Street MELBOURNE VIC 3000,Melbourne (CBD),Magpie Nest Cafe,Ground 69 Bourke Street MELBOURNE VIC 3000,4511,Cafes and Restaurants,Seats - Indoor,150,144.9714499,-37.81227428,
2024,48,101117,101117,87-91 Bourke Street MELBOURNE VIC 3000,Melbourne (CBD),Beef Rice Noodle Bar,146 Exhibition Street MELBOURNE VIC 3000,4511,Cafes and Restaurants,Seats - Outdoor,2,144.9709029,-37.812234,
2024,48,106559,106559,20 Meyers Place MELBOURNE VIC 3000,Melbourne (CBD),Waiters Restaurant,Level 1 20 Meyers Place MELBOURNE VIC 3000,4511,Cafes and Restaurants,Seats - Indoor,55,144.9723505,-37.81207814,
2024,48,106560,106560,12-18 Meyers Place MELBOURNE VIC 3000,Melbourne (CBD),San Telmo Restaurant,"Shop 2, 12-18 Meyers Place MELBOURNE VIC 3000",4511,Cafes and Restaurants,Seats - Indoor,85,144.9724509,-37.81221616,
2024,48,106560,106560,12-18 Meyers Place MELBOURNE VIC 3000,Melbourne (CBD),Pizza Pizza Pizza,"Shop 1, 12-18 Meyers Place MELBOURNE VIC 3000",4511,Cafes and Restaurants,Seats - Indoor,25,144.9724509,-37.81221616,
2024,51,105304,105304,185 King Street MELBOURNE VIC 3000,Melbourne (CBD),King Jons,185 King Street MELBOURNE VIC 3000,4511,Cafes and Restaurants,Seats - Indoor,47,144.9551492,-37.81584127,
2024,52,592048,592048,188-202 King Street MELBOURNE VIC 3000,Melbourne (CBD),La Di Da,188-200 King Street MELBOURNE VIC 3000,4511,Cafes and Restaurants,Seats - Indoor,250,144.9556243,-37.81551353,
2024,52,111283,636824,550 Bourke Street 550 Bourke Street MELBOURNE VIC 3000,Melbourne (CBD),Chilangos,"Tenancy 21, Ground 550 Bourke Street MELBOURNE VIC 3000",4511,Cafes and Restaurants,Seats - Outdoor,16,144.9573923,-37.81531863,
2024,52,612820,636824,CGU Tower 181 William Street MELBOURNE VIC 3000,Melbourne (CBD),Sakae,"Tenancy 12, Ground 181 William Street MELBOURNE VIC 3000",4511,Cafes and Restaurants,Seats - Outdoor,20,144.9573923,-37.81531863,
2024,52,612820,636824,CGU Tower 181 William Street MELBOURNE VIC 3000,Melbourne (CBD),Dumpling Kingdom,"Tenancy 7, Ground 181 William Street MELBOURNE VIC 3000",4511,Cafes and Restaurants,Seats - Indoor,8,144.9573923,-37.81531863,
2024,52,612820,636824,CGU Tower 181 William Street MELBOURNE VIC 3000,Melbourne (CBD),Abacus CBD,Tenancy Lobby 181 William Street MELBOURNE VIC 3000,4511,Cafes and Restaurants,Seats - Indoor,20,144.9573923,-37.81531863,
2024,53,101176,101176,494-512 Bourke Street MELBOURNE VIC 3000,Melbourne (CBD),Silk spoon,"Shop 6, 500 Bourke Street MELBOURNE VIC 3000",4511,Cafes and Restaurants,Seats - Indoor,68,144.9587607,-37.81494883,
2024,53,101176,101176,494-512 Bourke Street MELBOURNE VIC 3000,Melbourne (CBD),Sushi on little bourke,"Shop 3, 500 Bourke Street MELBOURNE VIC 3000",4511,Cafes and Restaurants,Seats - Indoor,44,144.9587607,-37.81494883,
2024,53,101177,101177,486-492 Bourke Street MELBOURNE VIC 3000,Melbourne (CBD),Villas Restaurant & Bar,Ground 492 Bourke Street MELBOURNE VIC 3000,4511,Cafes and Restaurants,Seats - Indoor,60,144.9591969,-37.81499761,
2024,53,101178,101178,482-484 Bourke Street MELBOURNE VIC 3000,Melbourne (CBD),B & Baguette Cafe,Ground 482 Bourke Street MELBOURNE VIC 3000,4511,Cafes and Restaurants,Seats - Outdoor,8,144.9593794,-37.8150902,
2024,54,101186,101186,408-412 Bourke Street MELBOURNE VIC 3000,Melbourne (CBD),Corner & Bench,408 Bourke Street MELBOURNE VIC 3000,4511,Cafes and Restaurants,Seats - Indoor,32,144.961492,-37.8144361,
2024,54,103180,103180,187-193 Elizabeth Street MELBOURNE VIC 3000,Melbourne (CBD),Chiki Chiki,Part Ground 187-193 Elizabeth Street MELBOURNE VIC 3000,4511,Cafes and Restaurants,Seats - Outdoor,20,144.9627078,-37.81388737,
2024,54,103184,103184,209-213 Elizabeth Street MELBOURNE VIC 3000,Melbourne (CBD),Tropicana Juice Bar,213 Elizabeth Street MELBOURNE VIC 3000,4511,Cafes and Restaurants,Seats - Outdoor,20,144.9625479,-37.81354034,
2024,54,104651,104651,13-15 Hardware Lane MELBOURNE VIC 3000,Melbourne (CBD),Rice Paper Scissors,Ground 13-15 Hardware Lane MELBOURNE VIC 3000,4511,Cafes and Restaurants,Seats - Indoor,45,144.9614052,-37.8142907,
2024,54,104654,104654,27-31 Hardware Lane MELBOURNE VIC 3000,Melbourne (CBD),Pandan Dessert Bar,Ground 29 Hardware Lane MELBOURNE VIC 3000,4511,Cafes and Restaurants,Seats - Indoor,24,144.9612664,-37.81398751,
2024,54,110727,105845,365-367 Little Bourke Street MELBOURNE VIC 3000,Melbourne (CBD),Osteria Ilaria,367 Little Bourke Street MELBOURNE VIC 3000,4511,Cafes and Restaurants,Seats - Indoor,75,144.9619918,-37.81374371,
2024,54,105848,105848,377-379 Little Bourke Street MELBOURNE VIC 3000,Melbourne (CBD),Serai Kitchen,7 Racing Club Lane MELBOURNE VIC 3000,4511,Cafes and Restaurants,Seats - Indoor,54,144.9615982,-37.81379494,
2024,54,105848,105848,377-379 Little Bourke Street MELBOURNE VIC 3000,Melbourne (CBD),Serai Kitchen,7 Racing Club Lane MELBOURNE VIC 3000,4511,Cafes and Restaurants,Seats - Outdoor,24,144.9615982,-37.81379494,
2024,54,105851,105851,393-397 Little Bourke Street MELBOURNE VIC 3000,Melbourne (CBD),Gracie,"Shop 4, 37 Hardware Lane MELBOURNE VIC 3000",4511,Cafes and Restaurants,Seats - Outdoor,20,144.9612043,-37.81385129,
2024,54,105851,105851,393-397 Little Bourke Street MELBOURNE VIC 3000,Melbourne (CBD),Triim,"Shop 3, 35 Hardware Lane MELBOURNE VIC 3000",4511,Cafes and Restaurants,Seats - Indoor,60,144.9612043,-37.81385129,
2024,55,101193,101193,General Post Office 338-352 Bourke Street MELBOURNE VIC 3000,Melbourne (CBD),Ca De Vin,Shop G29-G30 338-352 Bourke Street MELBOURNE VIC 3000,4511,Cafes and Restaurants,Seats - Outdoor,90,144.9632879,-37.81360425,
2024,55,105840,105840,265-279 Little Bourke Street MELBOURNE VIC 3000,Melbourne (CBD),The Louden Kitchen & Grill,Part Level 1 265-279 Little Bourke Street MELBOURNE VIC 3000,4511,Cafes and Restaurants,Seats - Indoor,160,144.9646469,-37.81288667,
2024,55,109285,109285,207-209 Swanston Street MELBOURNE VIC 3000,Melbourne (CBD),Sam Sam,Ground 209 Swanston Street MELBOURNE VIC 3000,4511,Cafes and Restaurants,Seats - Indoor,90,144.9650386,-37.81289706,
2024,56,101199,101199,246-260 Bourke Street MELBOURNE VIC 3000,Melbourne (CBD),Melbourne Dae Jang Geum Korean BBQ,"Shop 117, Level 1 235 Little Bourke Street MELBOURNE VIC 3000",4511,Cafes and Restaurants,Seats - Indoor,120,144.9658365,-37.81296443,
2024,56,101200,101200,Kmart Centre 222-244 Bourke Street MELBOURNE VIC 3000,Melbourne (CBD),Mr Bo Restaurant,"Shop 23, 219 Little Bourke Street MELBOURNE VIC 3000",4511,Cafes and Restaurants,Seats - Indoor,80,144.9662952,-37.81272047,
2024,56,101202,101202,206-218 Bourke Street MELBOURNE VIC 3000,Melbourne (CBD),China Chilli,"Shop 15, Level 1 206 Bourke Street MELBOURNE VIC 3000",4511,Cafes and Restaurants,Seats - Indoor,180,144.9668768,-37.81259409,
2024,56,101204,101204,194-200 Bourke Street MELBOURNE VIC 3000,Melbourne (CBD),Pearl Chablis And Oyster Bar,"Shop 108, Level 1 194-200 Bourke Street MELBOURNE VIC 3000",4511,Cafes and Restaurants,Seats - Indoor,18,144.9672828,-37.81244678,
2024,56,101204,101204,194-200 Bourke Street MELBOURNE VIC 3000,Melbourne (CBD),Sushi Hotaru,"Shop 118, Level 1 194-200 Bourke Street MELBOURNE VIC 3000",4511,Cafes and Restaurants,Seats - Indoor,32,144.9672828,-37.81244678,
2024,56,101204,101204,194-200 Bourke Street MELBOURNE VIC 3000,Melbourne (CBD),Shandong Mama Dumplings,"Shop 7-8, Ground 194-200 Bourke Street MELBOURNE VIC 3000",4511,Cafes and Restaurants,Seats - Indoor,48,144.9672828,-37.81244678,
2024,56,101204,101204,194-200 Bourke Street MELBOURNE VIC 3000,Melbourne (CBD),Pinchy's,"Shop 101, Level 1 194-200 Bourke Street MELBOURNE VIC 3000",4511,Cafes and Restaurants,Seats - Outdoor,50,144.9672828,-37.81244678,
2024,56,101204,101204,194-200 Bourke Street MELBOURNE VIC 3000,Melbourne (CBD),Katsuretsu Co,"Shop 6, Ground 194-200 Bourke Street MELBOURNE VIC 3000",4511,Cafes and Restaurants,Seats - Indoor,28,144.9672828,-37.81244678,
2024,56,108538,108538,163-169 Russell Street MELBOURNE VIC 3000,Melbourne (CBD),Shanghai Dragon Dumpling House,163 Russell Street MELBOURNE VIC 3000,4511,Cafes and Restaurants,Seats - Indoor,28,144.9676479,-37.81246709,
2024,56,108539,108539,171-173 Russell Street MELBOURNE VIC 3000,Melbourne (CBD),Hong Kong Cafe,171-173 Russell Street MELBOURNE VIC 3000,4511,Cafes and Restaurants,Seats - Indoor,58,144.9675898,-37.81238087,
2024,57,101209,101209,168-174 Bourke Street MELBOURNE VIC 3000,Melbourne (CBD),Udon Izakaya Maedaya,Part Ground 168 Bourke Street MELBOURNE VIC 3000,4511,Cafes and Restaurants,Seats - Indoor,50,144.9682479,-37.81251216,
2024,57,101212,101212,152-158 Bourke Street MELBOURNE VIC 3000,Melbourne (CBD),Ginza Teppanyaki Japanese Restaurant,Ground 139 Little Bourke Street MELBOURNE VIC 3000,4511,Cafes and Restaurants,Seats - Indoor,200,144.9685359,-37.81206119,
2024,57,101215,101215,130-132 Bourke Street MELBOURNE VIC 3000,Melbourne (CBD),Tan Hot Pot,Gnd & Bmt 130 Bourke Street MELBOURNE VIC 3000,4511,Cafes and Restaurants,Seats - Indoor,76,144.9691823,-37.81223835,
2024,57,101220,101220,98 Bourke Street MELBOURNE VIC 3000,Melbourne (CBD),sot,98 Bourke Street MELBOURNE VIC 3000,4511,Cafes and Restaurants,Seats - Indoor,70,144.9701703,-37.81194604,
2024,57,105832,105832,105 Little Bourke Street MELBOURNE VIC 3000,Melbourne (CBD),Byeok Dol,105 Little Bourke Street MELBOURNE VIC 3000,4511,Cafes and Restaurants,Seats - Indoor,90,144.9693398,-37.81146308,
2024,57,106432,106432,26-28 Market Lane MELBOURNE VIC 3000,Melbourne (CBD),Hofbrauhaus Restaurant,26-28 Market Lane MELBOURNE VIC 3000,4511,Cafes and Restaurants,Seats - Indoor,138,144.9693353,-37.81160744,
2024,57,106433,106433,18-24 Market Lane MELBOURNE VIC 3000,Melbourne (CBD),Hofbrauhaus Restaurant,Ground 18 Market Lane MELBOURNE VIC 3000,4511,Cafes and Restaurants,Seats - Indoor,73,144.9694031,-37.81175137,
2024,58,101224,101224,Florentino Restaurant 78-84 Bourke Street MELBOURNE VIC 3000,Melbourne (CBD),Grossi Florentino,Florentino Restaurant 78-84 Bourke Street MELBOURNE VIC 3000,4511,Cafes and Restaurants,Seats - Indoor,210,144.9708472,-37.81172969,
2024,58,101226,101226,72-74 Bourke Street MELBOURNE VIC 3000,Melbourne (CBD),Bottega Restaurant,72-74 Bourke Street MELBOURNE VIC 3000,4511,Cafes and Restaurants,Seats - Indoor,130,144.9710074,-37.81168307,
2024,58,101227,101227,70 Bourke Street MELBOURNE VIC 3000,Melbourne (CBD),Martini With Mancini / Bossa Nova,70 Bourke Street MELBOURNE VIC 3000,4511,Cafes and Restaurants,Seats - Indoor,30,144.9710755,-37.81166963,
2024,58,101227,101227,70 Bourke Street MELBOURNE VIC 3000,Melbourne (CBD),Martini With Mancini / Bossa Nova,70 Bourke Street MELBOURNE VIC 3000,4511,Cafes and Restaurants,Seats - Outdoor,12,144.9710755,-37.81166963,
2024,58,101229,101229,66 Bourke Street MELBOURNE VIC 3000,Melbourne (CBD),Pellegrini's Espresso Bar,66 Bourke Street MELBOURNE VIC 3000,4511,Cafes and Restaurants,Seats - Indoor,40,144.9711634,-37.81165009,
2024,58,101234,101234,18 Bourke Street MELBOURNE VIC 3000,Melbourne (CBD),Thong Thai,18 Bourke Street MELBOURNE VIC 3000,4511,Cafes and Restaurants,Seats - Indoor,38,144.9723627,-37.811289,
2024,58,101237,101237,10 Bourke Street MELBOURNE VIC 3000,Melbourne (CBD),Recoleta,Level 1 10 Bourke Street MELBOURNE VIC 3000,4511,Cafes and Restaurants,Seats - Indoor,32,144.9725554,-37.81123539,
2024,58,102268,102268,11-25 Crossley Street MELBOURNE VIC 3000,Melbourne (CBD),Becco,Ground 11-25 Crossley Street MELBOURNE VIC 3000,4511,Cafes and Restaurants,Seats - Indoor,100,144.9710141,-37.81143018,
2024,58,103621,103621,174-192 Exhibition Street MELBOURNE VIC 3000,Melbourne (CBD),Bossley Bar & Restaurant,Part Ground 174-192 Exhibition Street MELBOURNE VIC 3000,4511,Cafes and Restaurants,Seats - Outdoor,40,144.9706453,-37.81121462,
2024,58,105827,105827,27-35 Little Bourke Street MELBOURNE VIC 3000,Melbourne (CBD),Hochi Mama,Ground 35 Little Bourke Street MELBOURNE VIC 3000,4511,Cafes and Restaurants,Seats - Indoor,110,144.97183,-37.81094349,
2024,58,105828,105828,19 Little Bourke Street MELBOURNE VIC 3000,Melbourne (CBD),The Daughters Arms,"Part Ground 19 Little Bourke Street, MELBOURNE VIC 3000",4511,Cafes and Restaurants,Seats - Indoor,81,144.9719903,-37.81074304,
2024,58,105829,105829,37-41 Little Bourke Street MELBOURNE VIC 3000,Melbourne (CBD),Kiss And Tell Bar,Level 1 37-41 Little Bourke Street MELBOURNE VIC 3000,4511,Cafes and Restaurants,Seats - Indoor,90,144.9715059,-37.81083595,
2024,58,105831,105831,47-55 Little Bourke Street MELBOURNE VIC 3000,Melbourne (CBD),Bamboo House,"Shop 1, 47-55 Little Bourke Street MELBOURNE VIC 3000",4511,Cafes and Restaurants,Seats - Indoor,120,144.9711092,-37.81101377,
2024,58,504544,504544,16 Bourke Street MELBOURNE VIC 3000,Melbourne (CBD),Sanjha Chulha Lahore Te Amritsar Da,16 Bourke Street MELBOURNE VIC 3000,4511,Cafes and Restaurants,Seats - Indoor,48,144.9724129,-37.81127672,
2024,61,105309,105309,209-211 King Street MELBOURNE VIC 3000,Melbourne (CBD),Dosa Hut Melbourne CBD,209-211 King Street MELBOURNE VIC 3000,4511,Cafes and Restaurants,Seats - Indoor,178,144.9549266,-37.81529895,
2024,61,105717,105717,20-40 Rose Lane MELBOURNE VIC 3000,Melbourne (CBD),Mandarin Food Store,30 Rose Lane MELBOURNE VIC 3000,4511,Cafes and Restaurants,Seats - Outdoor,20,144.9542493,-37.81498784,
2024,61,641556,105718,220 Spencer Street MELBOURNE VIC 3000,Melbourne (CBD),Higher Ground,"Shop 101T, LwrGround 650 Little Bourke Street MELBOURNE VIC 3000",4511,Cafes and Restaurants,Seats - Indoor,180,144.9535256,-37.81537494,
2024,61,674546,105718,21-39 Rose Lane MELBOURNE VIC 3000,Melbourne (CBD),My Goodness Pizzas And Burgers,637 Lonsdale Street MELBOURNE VIC 3000,4511,Cafes and Restaurants,Seats - Indoor,131,144.9535256,-37.81537494,
2024,62,105713,105713,541-557 Lonsdale Street MELBOURNE VIC 3000,Melbourne (CBD),Sud Food & Wine,"Shop 1, Ground 555 Lonsdale Street MELBOURNE VIC 3000",4511,Cafes and Restaurants,Seats - Indoor,48,144.9562135,-37.81439357,
2024,62,105860,105860,562-566 Little Bourke Street MELBOURNE VIC 3000,Melbourne (CBD),Melbourne Hwaro Korean BBQ,Ground 562 Little Bourke Street MELBOURNE VIC 3000,4511,Cafes and Restaurants,Seats - Indoor,92,144.9556694,-37.81501702,
2024,62,105860,105860,562-566 Little Bourke Street MELBOURNE VIC 3000,Melbourne (CBD),Melbourne Hwaro Korean BBQ,Ground 562 Little Bourke Street MELBOURNE VIC 3000,4511,Cafes and Restaurants,Seats - Outdoor,20,144.9556694,-37.81501702,
2024,62,105861,105861,548-558 Little Bourke Street MELBOURNE VIC 3000,Melbourne (CBD),Scugnizzo Ristorante,Ground 558 Little Bourke Street MELBOURNE VIC 3000,4511,Cafes and Restaurants,Seats - Indoor,85,144.9559421,-37.81491966,
2024,62,110099,110099,189-203 William Street MELBOURNE VIC 3000,Melbourne (CBD),Shoku Eatery,514 Little Bourke Street MELBOURNE VIC 3000,4511,Cafes and Restaurants,Seats - Indoor,24,144.9570407,-37.8146364,
2024,63,105867,105867,428-432 Little Bourke Street MELBOURNE VIC 3000,Melbourne (CBD),Denmark House,"Suite 301, Level 3 428 Little Bourke Street MELBOURNE VIC 3000",4511,Cafes and Restaurants,Seats - Indoor,45,144.9597229,-37.81392391,
2024,63,108076,108076,207-213 Queen Street MELBOURNE VIC 3000,Melbourne (CBD),Gasthaus On Queen,211-213 Queen Street MELBOURNE VIC 3000,4511,Cafes and Restaurants,Seats - Indoor,55,144.9599073,-37.81386745,
2024,63,108076,108076,207-213 Queen Street MELBOURNE VIC 3000,Melbourne (CBD),Sool Tong,207 Queen Street MELBOURNE VIC 3000,4511,Cafes and Restaurants,Seats - Indoor,35,144.9599073,-37.81386745,
2024,63,108077,108077,215 Queen Street MELBOURNE VIC 3000,Melbourne (CBD),215 Queens,215 Queen Street MELBOURNE VIC 3000,4511,Cafes and Restaurants,Seats - Indoor,84,144.9598741,-37.81379647,
2024,64,104657,104657,59-61 Hardware Lane MELBOURNE VIC 3000,Melbourne (CBD),Miznon,59-61 Hardware Lane MELBOURNE VIC 3000,4511,Cafes and Restaurants,Seats - Indoor,70,144.9609697,-37.81338297,
2024,64,104657,104657,59-61 Hardware Lane MELBOURNE VIC 3000,Melbourne (CBD),Miznon,59-61 Hardware Lane MELBOURNE VIC 3000,4511,Cafes and Restaurants,Seats - Outdoor,30,144.9609697,-37.81338297,
2024,64,104659,104659,67-73 Hardware Lane MELBOURNE VIC 3000,Melbourne (CBD),The Mill,Ground 67 Hardware Lane MELBOURNE VIC 3000,4511,Cafes and Restaurants,Seats - Indoor,100,144.960908,-37.8132345,
2024,64,104659,104659,67-73 Hardware Lane MELBOURNE VIC 3000,Melbourne (CBD),The Mill,Ground 67 Hardware Lane MELBOURNE VIC 3000,4511,Cafes and Restaurants,Seats - Outdoor,40,144.960908,-37.8132345,
2024,64,104660,104660,75-77 Hardware Lane MELBOURNE VIC 3000,Melbourne (CBD),Amigos Hardware Lane,Lower & Upper Ground 75-77 Hardware Lane MELBOURNE VIC 3000,4511,Cafes and Restaurants,Seats - Indoor,60,144.9608667,-37.8131434,
2024,64,104665,104665,68-78 Hardware Lane MELBOURNE VIC 3000,Melbourne (CBD),Hencho En Mexico,78 Hardware Lane MELBOURNE VIC 3000,4511,Cafes and Restaurants,Seats - Outdoor,28,144.9611061,-37.81307029,
2024,64,104666,104666,64-66 Hardware Lane MELBOURNE VIC 3000,Melbourne (CBD),Grill Steak Seafood,Ground 66 Hardware Lane MELBOURNE VIC 3000,4511,Cafes and Restaurants,Seats - Outdoor,60,144.9611673,-37.81318202,
2024,64,105704,105704,377-381 Lonsdale Street MELBOURNE VIC 3000,Melbourne (CBD),Crust Gourmet Pizza Bar Melbourne,38 Niagara Lane MELBOURNE VIC 3000,4511,Cafes and Restaurants,Seats - Indoor,24,144.9614648,-37.81291055,
2024,64,105706,105706,389-395 Lonsdale Street MELBOURNE VIC 3000,Melbourne (CBD),Pho Thin,"Shop C, 389 Lonsdale Street MELBOURNE VIC 3000",4511,Cafes and Restaurants,Seats - Outdoor,16,144.9610121,-37.81288006,
2024,64,105707,105707,399-413 Lonsdale Street MELBOURNE VIC 3000,Melbourne (CBD),Woo 399 BBQ Lonsdale St,"Tenancy 4, 399 Lonsdale Street MELBOURNE VIC 3000",4511,Cafes and Restaurants,Seats - Indoor,104,144.9606809,-37.81303978,
2024,64,105707,105707,399-413 Lonsdale Street MELBOURNE VIC 3000,Melbourne (CBD),Hawker Boys,"Tenancy 2, 85 Hardware Lane MELBOURNE VIC 3000",4511,Cafes and Restaurants,Seats - Outdoor,16,144.9606809,-37.81303978,
2024,64,105707,105707,399-413 Lonsdale Street MELBOURNE VIC 3000,Melbourne (CBD),Claypots Barbarossa,"Tenancy 1, 79 Hardware Lane MELBOURNE VIC 3000",4511,Cafes and Restaurants,Seats - Outdoor,40,144.9606809,-37.81303978,
2024,64,105870,105870,380-384 Little Bourke Street MELBOURNE VIC 3000,Melbourne (CBD),French Saloon,Level 1 46 Hardware Lane MELBOURNE VIC 3000,4511,Cafes and Restaurants,Seats - Indoor,50,144.9613282,-37.81354346,
2024,64,105870,105870,380-384 Little Bourke Street MELBOURNE VIC 3000,Melbourne (CBD),Blok M Express,380 Little Bourke Street MELBOURNE VIC 3000,4511,Cafes and Restaurants,Seats - Indoor,50,144.9613282,-37.81354346,
2024,65,105698,105698,269-321 Lonsdale Street MELBOURNE VIC 3000,Melbourne (CBD),Tetsujin,"Shop M4, Level 4, 287 Lonsdale Street MELBOURNE VIC 3000",4511,Cafes and Restaurants,Seats - Indoor,100,144.9638386,-37.81245199,
2024,65,105698,105698,269-321 Lonsdale Street MELBOURNE VIC 3000,Melbourne (CBD),Miga Korean Jeongsik,Shop LG31 287 Lonsdale Street MELBOURNE VIC 3000,4511,Cafes and Restaurants,Seats - Indoor,60,144.9638386,-37.81245199,
2024,65,109289,109289,258-264 Little Bourke Street MELBOURNE VIC 3000,Melbourne (CBD),The Beast CBD,Part Gnd & Bmt 231 Swanston Street MELBOURNE VIC 3000,4511,Cafes and Restaurants,Seats - Indoor,50,144.9648395,-37.8125239,
2024,65,109292,109292,243-249 Swanston Street MELBOURNE VIC 3000,Melbourne (CBD),Bowltiful Lanzhou Beef Noodles,249 Swanston Street MELBOURNE VIC 3000,4511,Cafes and Restaurants,Seats - Indoor,60,144.9647364,-37.81230108,
2024,65,109300,109300,273 Swanston Street MELBOURNE VIC 3000,Melbourne (CBD),Pho Ganh,273 Swanston Street MELBOURNE VIC 3000,4511,Cafes and Restaurants,Seats - Indoor,56,144.9645316,-37.81185964,
2024,65,109301,109301,275-279 Swanston Street MELBOURNE VIC 3000,Melbourne (CBD),McDonalds,275-279 Swanston Street MELBOURNE VIC 3000,4511,Cafes and Restaurants,Seats - Indoor,94,144.964507,-37.81180752,
2024,66,101783,101783,15-17 Celestial Avenue MELBOURNE VIC 3000,Melbourne (CBD),Supper Inn Chinese Restaurant,15-17 Celestial Avenue MELBOURNE VIC 3000,4511,Cafes and Restaurants,Seats - Indoor,70,144.9661302,-37.81188094,
2024,66,105687,105687,195 Lonsdale Street MELBOURNE VIC 3000,Melbourne (CBD),Nelayan Indonesian Restaurant,195 Lonsdale Street MELBOURNE VIC 3000,4511,Cafes and Restaurants,Seats - Indoor,130,144.9666305,-37.81126839,
2024,66,105688,105688,197 Lonsdale Street MELBOURNE VIC 3000,Melbourne (CBD),Tsindos Greek Restaurant,Gnd & Flr1 197 Lonsdale Street MELBOURNE VIC 3000,4511,Cafes and Restaurants,Seats - Outdoor,16,144.9665765,-37.81128456,
2024,66,105688,105688,197 Lonsdale Street MELBOURNE VIC 3000,Melbourne (CBD),Tsindos Greek Restaurant,Gnd & Flr1 197 Lonsdale Street MELBOURNE VIC 3000,4511,Cafes and Restaurants,Seats - Indoor,80,144.9665765,-37.81128456,
2024,66,105878,105878,242-244 Little Bourke Street MELBOURNE VIC 3000,Melbourne (CBD),By Korea,"Unit 1, Ground 15 Tattersalls Lane MELBOURNE VIC 3000",4511,Cafes and Restaurants,Seats - Indoor,45,144.965603,-37.81213633,
2024,66,105883,105883,208-210 Little Bourke Street MELBOURNE VIC 3000,Melbourne (CBD),Wong's Late Night Hot Pot,Gnd & Flr1 208-210 Little Bourke Street MELBOURNE VIC 3000,4511,Cafes and Restaurants,Seats - Indoor,70,144.9664184,-37.81202818,
2024,66,105887,105887,198 Little Bourke Street MELBOURNE VIC 3000,Melbourne (CBD),Fortune Dumpling,198 Little Bourke Street MELBOURNE VIC 3000,4511,Cafes and Restaurants,Seats - Indoor,65,144.9666724,-37.81197639,
2024,66,105889,105889,178-190 Little Bourke Street MELBOURNE VIC 3000,Melbourne (CBD),Bornga Melbourne,Level 1 178-190 Little Bourke Street MELBOURNE VIC 3000,4511,Cafes and Restaurants,Seats - Indoor,110,144.9669419,-37.81186912,
2024,66,105889,105889,178-190 Little Bourke Street MELBOURNE VIC 3000,Melbourne (CBD),Juicy Bao,"Shop 2, Ground 178 Little Bourke Street MELBOURNE VIC 3000",4511,Cafes and Restaurants,Seats - Indoor,70,144.9669419,-37.81186912,
2024,66,105890,105890,172-176 Little Bourke Street MELBOURNE VIC 3000,Melbourne (CBD),Spice World Melbourne,172-176 Little Bourke Street MELBOURNE VIC 3000,4511,Cafes and Restaurants,Seats - Indoor,100,144.96713,-37.8118553,
2024,66,108548,108548,205-207 Russell Street MELBOURNE VIC 3000,Melbourne (CBD),Sweetie And Moustache Dessert Lounge,Floor 3-4 207 Russell Street MELBOURNE VIC 3000,4511,Cafes and Restaurants,Seats - Indoor,80,144.9672984,-37.81169847,
2024,66,108550,108550,213-217 Russell Street MELBOURNE VIC 3000,Melbourne (CBD),Welive Hotpot,Level 1 217 Russell Street MELBOURNE VIC 3000,4511,Cafes and Restaurants,Seats - Indoor,35,144.9672364,-37.81156166,
2024,66,108552,108552,221-223 Russell Street MELBOURNE VIC 3000,Melbourne (CBD),LaoLiuZhou River Snails Rice Noodles,221 Russell Street MELBOURNE VIC 3000,4511,Cafes and Restaurants,Seats - Indoor,25,144.9671667,-37.81140869,
2024,66,108552,108552,221-223 Russell Street MELBOURNE VIC 3000,Melbourne (CBD),Nam Loong,223 Russell Street MELBOURNE VIC 3000,4511,Cafes and Restaurants,Seats - Indoor,50,144.9671667,-37.81140869,
2024,66,109389,109389,247-255 Lonsdale Street MELBOURNE VIC 3000,Melbourne (CBD),Shan Cheng Wai Fish And Pickles,Shop Ground 268 Swanston Street MELBOURNE VIC 3000,4511,Cafes and Restaurants,Seats - Indoor,28,144.9651046,-37.81169356,
2024,66,109390,109390,264-266 Swanston Street MELBOURNE VIC 3000,Melbourne (CBD),Gong De Lin,Level 3 264 Swanston Street MELBOURNE VIC 3000,4511,Cafes and Restaurants,Seats - Indoor,40,144.9651473,-37.81181063,
2024,66,109392,109392,Curtin House 248-258 Swanston Street MELBOURNE VIC 3000,Melbourne (CBD),Foodie Hub,254 Swanston Street MELBOURNE VIC 3000,4511,Cafes and Restaurants,Seats - Indoor,20,144.9652504,-37.81199559,
2024,67,103603,103603,221-227 Exhibition Street MELBOURNE VIC 3000,Melbourne (CBD),Yamato Japanese Restaurant,223 Exhibition Street MELBOURNE VIC 3000,4511,Cafes and Restaurants,Seats - Indoor,50,144.9695849,-37.81067091,
2024,67,103605,103605,231-233 Exhibition Street MELBOURNE VIC 3000,Melbourne (CBD),Pinto Thai Food,231 Exhibition Street MELBOURNE VIC 3000,4511,Cafes and Restaurants,Seats - Indoor,20,144.9695206,-37.81051104,
2024,67,105674,105674,107-111 Lonsdale Street MELBOURNE VIC 3000,Melbourne (CBD),Bar Margaux,Basement 111 Lonsdale Street MELBOURNE VIC 3000,4511,Cafes and Restaurants,Seats - Indoor,213,144.9691194,-37.81053335,
2024,67,105683,105683,157-159 Lonsdale Street MELBOURNE VIC 3000,Melbourne (CBD),Dumpling Guys,157-159 Lonsdale Street MELBOURNE VIC 3000,4511,Cafes and Restaurants,Seats - Indoor,45,144.9678627,-37.81093607,
2024,67,108582,108582,Mantra On Russell 210-222 Russell Street MELBOURNE VIC 3000,Melbourne (CBD),Ants Bistro,7-9 Corrs Lane MELBOURNE VIC 3000,4511,Cafes and Restaurants,Seats - Indoor,100,144.9679947,-37.81132789,
2024,67,108582,108582,Mantra On Russell 210-222 Russell Street MELBOURNE VIC 3000,Melbourne (CBD),Home Kitchen & Bar,Restaurant Level 1 222 Russell Street MELBOURNE VIC 3000,4511,Cafes and Restaurants,Seats - Indoor,80,144.9679947,-37.81132789,
2024,67,108582,108582,Mantra On Russell 210-222 Russell Street MELBOURNE VIC 3000,Melbourne (CBD),Shangha Street Xiaolongboa & Dumpling,146-148 Little Bourke Street MELBOURNE VIC 3000,4511,Cafes and Restaurants,Seats - Indoor,80,144.9679947,-37.81132789,
2024,67,108583,108583,196-208 Russell Street MELBOURNE VIC 3000,Melbourne (CBD),Shou Sumiyaki,"Tenancy 5, 158 Little Bourke Street MELBOURNE VIC 3000",4511,Cafes and Restaurants,Seats - Indoor,90,144.9678632,-37.81158809,
2024,67,105681,110701,145-147 Lonsdale Street MELBOURNE VIC 3000,Melbourne (CBD),Tami Sweet Lonsdale,145 Lonsdale Street MELBOURNE VIC 3000,4511,Cafes and Restaurants,Seats - Indoor,12,144.9681529,-37.81081665,
2024,68,103620,103620,196-226 Exhibition Street MELBOURNE VIC 3000,Melbourne (CBD),Supagrind,"Tenancy 1, Ground 222 Exhibition Street MELBOURNE VIC 3000",4511,Cafes and Restaurants,Seats - Indoor,35,144.9704962,-37.81055707,
2024,68,105672,105672,53-57 Lonsdale Street MELBOURNE VIC 3000,Melbourne (CBD),Kenny's Bakery Cafe,53-55 Lonsdale Street MELBOURNE VIC 3000,4511,Cafes and Restaurants,Seats - Indoor,18,144.9707149,-37.81005686,
2024,68,105672,105672,53-57 Lonsdale Street MELBOURNE VIC 3000,Melbourne (CBD),Bobbys Coffee & Bagels,Rear 57 Lonsdale Street MELBOURNE VIC 3000,4511,Cafes and Restaurants,Seats - Outdoor,16,144.9707149,-37.81005686,
2024,68,105899,105899,50-52 Little Bourke Street MELBOURNE VIC 3000,Melbourne (CBD),Shark Fin Inn City,50-52 Little Bourke Street MELBOURNE VIC 3000,4511,Cafes and Restaurants,Seats - Indoor,220,144.9709749,-37.81068513,
2024,68,105901,105901,24-38 Little Bourke Street MELBOURNE VIC 3000,Melbourne (CBD),Little Gordon,"Shop 3-4, Ground 24-38 Little Bourke Street MELBOURNE VIC 3000",4511,Cafes and Restaurants,Seats - Outdoor,20,144.9714138,-37.81033978,
2024,68,108990,108990,209-227 Spring Street MELBOURNE VIC 3000,Melbourne (CBD),Anda Cafe,Part Ground 215 Spring Street MELBOURNE VIC 3000,4511,Cafes and Restaurants,Seats - Indoor,40,144.9718354,-37.80990397,
2024,71,105315,105315,267-271 King Street MELBOURNE VIC 3000,Melbourne (CBD),Taketori Fusion Japanese,Part Gnd & Flr1 267-271 King Street MELBOURNE VIC 3000,4511,Cafes and Restaurants,Seats - Indoor,40,144.9542983,-37.81392013,
2024,71,105719,105719,Melbourne One Apartments 612-620 Lonsdale Street MELBOURNE VIC 3000,Melbourne (CBD),Omo,18 Merriman Lane MELBOURNE VIC 3000,4511,Cafes and Restaurants,Seats - Indoor,32,144.9539224,-37.81421045,
2024,71,711415,108962,244-262 Spencer Street MELBOURNE VIC 3000,Melbourne (CBD),Pepper Lunch,"Shop 1, 260 Spencer Street MELBOURNE VIC 3000",4511,Cafes and Restaurants,Seats - Indoor,42,144.9529546,-37.81437529,
2024,71,711415,108962,244-262 Spencer Street MELBOURNE VIC 3000,Melbourne (CBD),Eggholic Sweet,Part 262 Spencer Street MELBOURNE VIC 3000,4511,Cafes and Restaurants,Seats - Indoor,20,144.9529546,-37.81437529,
2024,72,105375,105375,276-282 King Street MELBOURNE VIC 3000,Melbourne (CBD),Dosirock,"Shop 1, 280 King Street MELBOURNE VIC 3000",4511,Cafes and Restaurants,Seats - Indoor,40,144.9548222,-37.81349786,
2024,72,105375,105375,276-282 King Street MELBOURNE VIC 3000,Melbourne (CBD),House Blend,"Shop 3, 280 King Street MELBOURNE VIC 3000",4511,Cafes and Restaurants,Seats - Outdoor,16,144.9548222,-37.81349786,
2024,72,105375,105375,276-282 King Street MELBOURNE VIC 3000,Melbourne (CBD),BBQ KING,"Shop 2, 280 King Street MELBOURNE VIC 3000",4511,Cafes and Restaurants,Seats - Indoor,130,144.9548222,-37.81349786,
2024,72,105724,105724,556-558 Lonsdale Street MELBOURNE VIC 3000,Melbourne (CBD),Encanto,556-558 Lonsdale Street MELBOURNE VIC 3000,4511,Cafes and Restaurants,Seats - Indoor,30,144.9557716,-37.81386782,
2024,72,105727,105727,528-538 Lonsdale Street MELBOURNE VIC 3000,Melbourne (CBD),Chun Chun Pocha,534 Lonsdale Street MELBOURNE VIC 3000,4511,Cafes and Restaurants,Seats - Indoor,30,144.9564217,-37.81365662,
2024,72,105727,105727,528-538 Lonsdale Street MELBOURNE VIC 3000,Melbourne (CBD),Cafe Court,536 Lonsdale Street MELBOURNE VIC 3000,4511,Cafes and Restaurants,Seats - Indoor,30,144.9564217,-37.81365662,
2024,72,105726,110707,Joan Rosanove Chambers 550 Lonsdale Street MELBOURNE VIC 3000,Melbourne (CBD),Liyin Rice Roll Master,"Shop C2, 10C Healeys Lane MELBOURNE VIC 3000",4511,Cafes and Restaurants,Seats - Outdoor,4,144.9560169,-37.8134766,
2024,72,110708,110707,535 Little Lonsdale Street MELBOURNE VIC 3000,Melbourne (CBD),Gami Chicken and Beer,"Shop G, 535 Little Lonsdale Street MELBOURNE VIC 3000",4511,Cafes and Restaurants,Seats - Indoor,40,144.9560169,-37.8134766,
2024,72,110708,110707,535 Little Lonsdale Street MELBOURNE VIC 3000,Melbourne (CBD),Yuk Gam,"Shop 5-7, 535 Little Lonsdale Street MELBOURNE VIC 3000",4511,Cafes and Restaurants,Seats - Indoor,110,144.9560169,-37.8134766,
2024,73,559301,559301,458-468 Lonsdale Street MELBOURNE VIC 3000,Melbourne (CBD),County Cafe Pty Ltd,Ground 460 Lonsdale Street MELBOURNE VIC 3000,4511,Cafes and Restaurants,Seats - Outdoor,16,144.9583529,-37.8130525,
2024,73,559301,559301,458-468 Lonsdale Street MELBOURNE VIC 3000,Melbourne (CBD),County Cafe Pty Ltd,Ground 460 Lonsdale Street MELBOURNE VIC 3000,4511,Cafes and Restaurants,Seats - Indoor,24,144.9583529,-37.8130525,
2024,74,103203,103203,299 Elizabeth Street MELBOURNE VIC 3000,Melbourne (CBD),Oski Snowice,299 Elizabeth Street MELBOURNE VIC 3000,4511,Cafes and Restaurants,Seats - Indoor,34,144.9616454,-37.81165187,
2024,74,103204,103204,301 Elizabeth Street MELBOURNE VIC 3000,Melbourne (CBD),G2 Korean BBQ,301 Elizabeth Street MELBOURNE VIC 3000,4511,Cafes and Restaurants,Seats - Indoor,74,144.9616267,-37.81161119,
2024,74,103205,103205,303-305 Elizabeth Street MELBOURNE VIC 3000,Melbourne (CBD),Shanghai Street On Elizabeth,303-305 Elizabeth Street MELBOURNE VIC 3000,4511,Cafes and Restaurants,Seats - Indoor,80,144.9615988,-37.81155119,
2024,74,104661,104661,115-123 Hardware Street MELBOURNE VIC 3000,Melbourne (CBD),Nimbo Pty Ltd,119 Hardware Street MELBOURNE VIC 3000,4511,Cafes and Restaurants,Seats - Outdoor,6,144.9603936,-37.81210735,
2024,74,105737,105737,University City Apartments 402-408 Lonsdale Street MELBOURNE VIC 3000,Melbourne (CBD),Mook Ji Bar,404-406 Lonsdale Street MELBOURNE VIC 3000,4511,Cafes and Restaurants,Seats - Indoor,68,144.9603254,-37.81244232,
2024,74,105743,105743,352-362 Lonsdale Street MELBOURNE VIC 3000,Melbourne (CBD),Noodle Villa,279-281 Elizabeth Street MELBOURNE VIC 3000,4511,Cafes and Restaurants,Seats - Indoor,84,144.9617625,-37.81212877,
2024,74,106017,106017,391-393 Little Lonsdale Street MELBOURNE VIC 3000,Melbourne (CBD),Sara Craft Ramen & Bar,"Shop 3, 391 Little Lonsdale Street MELBOURNE VIC 3000",4511,Cafes and Restaurants,Seats - Indoor,21,144.9603411,-37.81187439,
2024,76,589841,105749,QV Retail & Parking 221 Little Lonsdale Street MELBOURNE VIC 3000,Melbourne (CBD),Chocolateria San Churro QV,251-255 Little Lonsdale Street MELBOURNE VIC 3000,4511,Cafes and Restaurants,Seats - Indoor,40,144.9657034,-37.810658,
2024,76,589841,105749,QV Retail & Parking 221 Little Lonsdale Street MELBOURNE VIC 3000,Melbourne (CBD),Dainty sichuan noodles,27-33 Red Cape Lane MELBOURNE VIC 3000,4511,Cafes and Restaurants,Seats - Indoor,50,144.9657034,-37.810658,
2024,76,589841,105749,QV Retail & Parking 221 Little Lonsdale Street MELBOURNE VIC 3000,Melbourne (CBD),Hakata Gensuke QV,200 Lonsdale Street MELBOURNE VIC 3000,4511,Cafes and Restaurants,Seats - Indoor,32,144.9657034,-37.810658,
2024,76,589841,105749,QV Retail & Parking 221 Little Lonsdale Street MELBOURNE VIC 3000,Melbourne (CBD),Ippudo,18-22 Artemis Lane MELBOURNE VIC 3000,4511,Cafes and Restaurants,Seats - Indoor,60,144.9657034,-37.810658,
2024,76,589841,105749,QV Retail & Parking 221 Little Lonsdale Street MELBOURNE VIC 3000,Melbourne (CBD),Max Brenner Chocolates,25-27 QV Square MELBOURNE VIC 3000,4511,Cafes and Restaurants,Seats - Outdoor,56,144.9657034,-37.810658,
2024,76,589841,105749,QV Retail & Parking 221 Little Lonsdale Street MELBOURNE VIC 3000,Melbourne (CBD),Meet Fresh QV,24 Artemis Lane MELBOURNE VIC 3000,4511,Cafes and Restaurants,Seats - Indoor,46,144.9657034,-37.810658,
2024,76,589841,105749,QV Retail & Parking 221 Little Lonsdale Street MELBOURNE VIC 3000,Melbourne (CBD),Old Man Pho,19-21 QV Urban Market MELBOURNE VIC 3000,4511,Cafes and Restaurants,Seats - Indoor,45,144.9657034,-37.810658,
2024,76,589841,105749,QV Retail & Parking 221 Little Lonsdale Street MELBOURNE VIC 3000,Melbourne (CBD),Sura Korean BBQ,26-30 Artemis Lane MELBOURNE VIC 3000,4511,Cafes and Restaurants,Seats - Outdoor,20,144.9657034,-37.810658,
2024,77,103608,103608,275-285 Exhibition Street MELBOURNE VIC 3000,Melbourne (CBD),Pepe's Italian & Liquor,275-285 Exhibition Street MELBOURNE VIC 3000,4511,Cafes and Restaurants,Seats - Indoor,90,144.9689066,-37.80938322,
2024,77,105758,105755,Church Manse Wesley Uniting Church 130 Lonsdale Street MELBOURNE VIC 3000,Melbourne (CBD),Reed House,Ground Church Manse Wesley Uniting Church 130 Lonsdale Street MELBOURNE VIC 3000,4511,Cafes and Restaurants,Seats - Outdoor,50,144.9681718,-37.8099428,
2024,77,110711,105755,Wesley Place 130 Lonsdale Street MELBOURNE VIC 3000,Melbourne (CBD),Sakura Kaiten Sushi,"Tenancy 3, 130 Lonsdale Street MELBOURNE VIC 3000",4511,Cafes and Restaurants,Seats - Indoor,42,144.9681718,-37.8099428,
2024,77,110711,105755,Wesley Place 130 Lonsdale Street MELBOURNE VIC 3000,Melbourne (CBD),Fishbowl,"Tenancy 1, 130 Lonsdale Street MELBOURNE VIC 3000",4511,Cafes and Restaurants,Seats - Indoor,30,144.9681718,-37.8099428,
2024,77,105752,110709,150 Lonsdale Street MELBOURNE VIC 3000,Melbourne (CBD),FOUNDRY LANE / Espresso Impresso,"Tenancy 2, Ground 150 Lonsdale Street MELBOURNE VIC 3000",4511,Cafes and Restaurants,Seats - Indoor,22,144.967574,-37.81012652,
2024,78,110715,580091,38-40 Lonsdale Street MELBOURNE VIC 3000,Melbourne (CBD),Mellow Beans,38-40 Lonsdale Street MELBOURNE VIC 3000,4511,Cafes and Restaurants,Seats - Indoor,40,144.9707325,-37.8091842,
2024,78,603923,580091,The Urban Workshop 32-54 Lonsdale Street MELBOURNE VIC 3000,Melbourne (CBD),Bluebag,"Shop 11-11A, 36 Lonsdale Street MELBOURNE VIC 3000",4511,Cafes and Restaurants,Seats - Indoor,18,144.9707325,-37.8091842,
2024,78,603923,580091,The Urban Workshop 32-54 Lonsdale Street MELBOURNE VIC 3000,Melbourne (CBD),Axil Coffee Roasters,Kiosk 50 Lonsdale Street MELBOURNE VIC 3000,4511,Cafes and Restaurants,Seats - Indoor,71,144.9707325,-37.8091842,
2024,78,603923,580091,The Urban Workshop 32-54 Lonsdale Street MELBOURNE VIC 3000,Melbourne (CBD),Shuji sushi,"Shop 8, 36 Lonsdale Street MELBOURNE VIC 3000",4511,Cafes and Restaurants,Seats - Indoor,20,144.9707325,-37.8091842,
2024,81,561680,105462,"Building A, Sir William Angliss Centre 555 La Trobe Street MELBOURNE VIC 3000",Melbourne (CBD),Tram Cafe,"Shop 1, Ground 555 La Trobe Street MELBOURNE VIC 3000",4511,Cafes and Restaurants,Seats - Outdoor,15,144.9528962,-37.81327282,
2024,81,561680,105462,"Building A, Sir William Angliss Centre 555 La Trobe Street MELBOURNE VIC 3000",Melbourne (CBD),Tram Cafe,"Shop 1, Ground 555 La Trobe Street MELBOURNE VIC 3000",4511,Cafes and Restaurants,Seats - Indoor,60,144.9528962,-37.81327282,
2024,81,561698,105462,"Building E, C L Cunneen Wing 550 Little Lonsdale Street MELBOURNE VIC 3000",Melbourne (CBD),Angliss Restaurant,Part Ground Building E 550 Little Lonsdale Street MELBOURNE VIC 3000,4511,Cafes and Restaurants,Seats - Indoor,150,144.9528962,-37.81327282,
2024,82,105460,105460,479-495 La Trobe Street MELBOURNE VIC 3000,Melbourne (CBD),Atrium 485,Part Ground North Tower 485 La Trobe Street MELBOURNE VIC 3000,4511,Cafes and Restaurants,Seats - Indoor,14,144.9549514,-37.81275166,
2024,82,105460,105460,479-495 La Trobe Street MELBOURNE VIC 3000,Melbourne (CBD),Perch Cafe,Part Ground North Tower 485 La Trobe Street MELBOURNE VIC 3000,4511,Cafes and Restaurants,Seats - Indoor,20,144.9549514,-37.81275166,
2024,82,106031,106031,466-468 Little Lonsdale Street MELBOURNE VIC 3000,Melbourne (CBD),Dongdaemun,"Shop 1, Ground 466-468 Little Lonsdale Street MELBOURNE VIC 3000",4511,Cafes and Restaurants,Seats - Indoor,24,144.9555729,-37.81290439,
2024,82,106033,106033,470-472 Little Lonsdale Street MELBOURNE VIC 3000,Melbourne (CBD),The Workers Food Room,472 Little Lonsdale Street MELBOURNE VIC 3000,4511,Cafes and Restaurants,Seats - Indoor,38,144.9555039,-37.81299012,
2024,83,110759,110142,Northern Guardhouse Royal Mint 318 William Street MELBOURNE VIC 3000,Melbourne (CBD),The Mint Bar & Restaurant,Northern Guardhouse Royal Mint 318 William Street MELBOURNE VIC 3000,4511,Cafes and Restaurants,Seats - Indoor,36,144.9573609,-37.81209045,
2024,84,104560,104560,33-35 Guildford Lane MELBOURNE VIC 3000,Melbourne (CBD),Brick Lane Cafe,Ground 33 Guildford Lane MELBOURNE VIC 3000,4511,Cafes and Restaurants,Seats - Indoor,50,144.9598611,-37.81146107,
2024,84,105454,105454,333-335 La Trobe Street MELBOURNE VIC 3000,Melbourne (CBD),Khao,335 La Trobe Street MELBOURNE VIC 3000,4511,Cafes and Restaurants,Seats - Outdoor,10,144.9596443,-37.81107017,
2024,84,650593,106044,Melbourne Star Apartments 8 Sutherland Street MELBOURNE VIC 3000,Melbourne (CBD),Barkada,6 Sutherland Street MELBOURNE VIC 3000,4511,Cafes and Restaurants,Seats - Outdoor,6,144.9609484,-37.81131628,
2024,85,103311,103311,316-360 Elizabeth Street MELBOURNE VIC 3000,Melbourne (CBD),Poke Bibimbap,"Tenancy 80, Ground 360 Elizabeth Street MELBOURNE VIC 3000",4511,Cafes and Restaurants,Seats - Indoor,13,144.9620613,-37.81084464,
2024,85,103311,103311,316-360 Elizabeth Street MELBOURNE VIC 3000,Melbourne (CBD),Poke Bibimbap,"Tenancy 80, Ground 360 Elizabeth Street MELBOURNE VIC 3000",4511,Cafes and Restaurants,Seats - Outdoor,4,144.9620613,-37.81084464,
2024,85,103311,103311,316-360 Elizabeth Street MELBOURNE VIC 3000,Melbourne (CBD),Old Man Pho,"Tenancy 83, Ground 360 Elizabeth Street MELBOURNE VIC 3000",4511,Cafes and Restaurants,Seats - Indoor,16,144.9620613,-37.81084464,
2024,85,105746,105746,Melbourne Central 183-265 La Trobe Street MELBOURNE VIC 3000,Melbourne (CBD),Mad Mex,"Shop 263, Level 2 300 Lonsdale Street MELBOURNE VIC 3000",4511,Cafes and Restaurants,Seats - Indoor,25,144.9630189,-37.81073331,
2024,85,105746,105746,Melbourne Central 183-265 La Trobe Street MELBOURNE VIC 3000,Melbourne (CBD),Niku Shiki,"Shop 70, Ground 300 Lonsdale Street MELBOURNE VIC 3000",4511,Cafes and Restaurants,Seats - Indoor,50,144.9630189,-37.81073331,
2024,85,105746,105746,Melbourne Central 183-265 La Trobe Street MELBOURNE VIC 3000,Melbourne (CBD),Makoto Melbourne Central,"Shop 239, Level 2 300 Lonsdale Street MELBOURNE VIC 3000",4511,Cafes and Restaurants,Seats - Indoor,50,144.9630189,-37.81073331,
2024,85,105746,105746,Melbourne Central 183-265 La Trobe Street MELBOURNE VIC 3000,Melbourne (CBD),Little Sparrow,"Kiosk 1, Level 1 300 Lonsdale Street MELBOURNE VIC 3000",4511,Cafes and Restaurants,Seats - Indoor,40,144.9630189,-37.81073331,
2024,85,105746,105746,Melbourne Central 183-265 La Trobe Street MELBOURNE VIC 3000,Melbourne (CBD),Asian Beer Cafe,"Shop 311, Level 3 300 Lonsdale Street MELBOURNE VIC 3000",4511,Cafes and Restaurants,Seats - Indoor,560,144.9630189,-37.81073331,
2024,85,105746,105746,Melbourne Central 183-265 La Trobe Street MELBOURNE VIC 3000,Melbourne (CBD),Unabara/Gyoza Gyoza,"Shop 157, Level 1 300 Lonsdale Street MELBOURNE VIC 3000",4511,Cafes and Restaurants,Seats - Outdoor,44,144.9630189,-37.81073331,
2024,85,105746,105746,Melbourne Central 183-265 La Trobe Street MELBOURNE VIC 3000,Melbourne (CBD),Unabara/Gyoza Gyoza,"Shop 157, Level 1 300 Lonsdale Street MELBOURNE VIC 3000",4511,Cafes and Restaurants,Seats - Indoor,30,144.9630189,-37.81073331,
2024,85,105746,105746,Melbourne Central 183-265 La Trobe Street MELBOURNE VIC 3000,Melbourne (CBD),Sushi Jiro,"Shop 76, Ground 300 Lonsdale Street MELBOURNE VIC 3000",4511,Cafes and Restaurants,Seats - Indoor,32,144.9630189,-37.81073331,
2024,85,109303,109303,289-299 Swanston Street MELBOURNE VIC 3000,Melbourne (CBD),Guzman Y Gomez Swanston Street,Ground 293 Swanston Street MELBOURNE VIC 3000,4511,Cafes and Restaurants,Seats - Outdoor,18,144.9642637,-37.81122709,
2024,85,109303,109303,289-299 Swanston Street MELBOURNE VIC 3000,Melbourne (CBD),Guzman Y Gomez Swanston Street,Ground 293 Swanston Street MELBOURNE VIC 3000,4511,Cafes and Restaurants,Seats - Indoor,65,144.9642637,-37.81122709,
2024,85,109304,109304,301-303 Swanston Street MELBOURNE VIC 3000,Melbourne (CBD),David's Master Pot Swanston,Ground 301 Swanston Street MELBOURNE VIC 3000,4511,Cafes and Restaurants,Seats - Indoor,26,144.9641938,-37.81107765,
2024,86,109388,109388,State Library of Victoria 304-328 Swanston Street MELBOURNE VIC 3000,Melbourne (CBD),The Moat Bar & Cafe,Basement 176 Little Lonsdale Street MELBOURNE VIC 3000,4511,Cafes and Restaurants,Seats - Indoor,74,144.965306,-37.80976881,
2024,87,103613,103613,309 Exhibition Street MELBOURNE VIC 3000,Melbourne (CBD),Noodle & Bbq,309 Exhibition Street MELBOURNE VIC 3000,4511,Cafes and Restaurants,Seats - Indoor,28,144.9687244,-37.80874125,
2024,87,103614,103614,311 Exhibition Street MELBOURNE VIC 3000,Melbourne (CBD),Grandma's Dumplings,311 Exhibition Street MELBOURNE VIC 3000,4511,Cafes and Restaurants,Seats - Indoor,44,144.9687045,-37.80869914,
2024,87,103614,103614,311 Exhibition Street MELBOURNE VIC 3000,Melbourne (CBD),Grandma's Dumplings,311 Exhibition Street MELBOURNE VIC 3000,4511,Cafes and Restaurants,Seats - Outdoor,6,144.9687045,-37.80869914,
2024,87,106056,106056,EastEnd Apartments 2-14 Exploration Lane MELBOURNE VIC 3000,Melbourne (CBD),The League of Honest Coffee,110 Little Lonsdale Street MELBOURNE VIC 3000,4511,Cafes and Restaurants,Seats - Indoor,60,144.9684463,-37.80913993,
2024,88,110858,108992,The Focal 299 Spring Street MELBOURNE VIC 3000,Melbourne (CBD),Rong Cha,18 Little Lonsdale Street MELBOURNE VIC 3000,4511,Cafes and Restaurants,Seats - Indoor,30,144.9710146,-37.80814525,
2024,91,105325,105325,369-379 King Street WEST MELBOURNE VIC 3003,West Melbourne (Residential),baru,373 King Street WEST MELBOURNE VIC 3003,4511,Cafes and Restaurants,Seats - Indoor,24,144.9532514,-37.81166257,
2024,91,105325,105325,369-379 King Street WEST MELBOURNE VIC 3003,West Melbourne (Residential),The Dispensa,377 King Street WEST MELBOURNE VIC 3003,4511,Cafes and Restaurants,Seats - Outdoor,6,144.9532514,-37.81166257,
2024,93,105473,105473,410-420 La Trobe Street MELBOURNE VIC 3000,Melbourne (CBD),Cafenatics,Part Ground 414 La Trobe Street MELBOURNE VIC 3000,4511,Cafes and Restaurants,Seats - Indoor,38,144.957114,-37.81123723,
2024,93,105477,105477,378-392 La Trobe Street MELBOURNE VIC 3000,Melbourne (CBD),Charles LaTrobe Coffee Co,Part Ground 380-390 La Trobe Street MELBOURNE VIC 3000,4511,Cafes and Restaurants,Seats - Indoor,80,144.9580529,-37.81075363,
2024,93,578981,565462,Wills Court 25 Wills Street MELBOURNE VIC 3000,Melbourne (CBD),Operator 25,"Unit 3, Ground 25 Wills Street MELBOURNE VIC 3000",4511,Cafes and Restaurants,Seats - Indoor,56,144.9571621,-37.81071591,
2024,94,103216,103216,284-294 La Trobe Street MELBOURNE VIC 3000,Melbourne (CBD),Lanzhou Beef Noodle Bar,379 Elizabeth Street MELBOURNE VIC 3000,4511,Cafes and Restaurants,Seats - Indoor,65,144.9608495,-37.8100143,
2024,94,105481,105481,Centro Apartments 348-358 La Trobe Street MELBOURNE VIC 3000,Melbourne (CBD),Keki Milkbar,Shop LwrGround 350 La Trobe Street MELBOURNE VIC 3000,4511,Cafes and Restaurants,Seats - Indoor,42,144.9592776,-37.81067976,
2024,94,105484,105484,296-310 La Trobe Street MELBOURNE VIC 3000,Melbourne (CBD),Little nooky,Part Ground 300 La Trobe Street MELBOURNE VIC 3000,4511,Cafes and Restaurants,Seats - Indoor,16,144.9604348,-37.81010387,
2024,94,108089,108089,346-362 Queen Street MELBOURNE VIC 3000,Melbourne (CBD),Cherry Lane Espresso,Part Ground 350 Queen Street MELBOURNE VIC 3000,4511,Cafes and Restaurants,Seats - Indoor,42,144.9590612,-37.81040943,
2024,94,639236,639236,127-141 A'Beckett Street MELBOURNE VIC 3000,Melbourne (CBD),Hualu Peking Duck,"Shop 1, 137 A'Beckett Street MELBOURNE VIC 3000",4511,Cafes and Restaurants,Seats - Indoor,130,144.9597629,-37.80988902,
2024,95,105981,105981,70-72 Little La Trobe Street MELBOURNE VIC 3000,Melbourne (CBD),Chang Go,70-72 Little La Trobe Street MELBOURNE VIC 3000,4511,Cafes and Restaurants,Seats - Indoor,100,144.9617429,-37.80944542,
2024,95,105985,105985,46 Little La Trobe Street MELBOURNE VIC 3000,Melbourne (CBD),Samut,Ground 46 Little La Trobe Street MELBOURNE VIC 3000,4511,Cafes and Restaurants,Seats - Indoor,28,144.9622513,-37.80929555,
2024,95,109315,109315,407-409 Swanston Street MELBOURNE VIC 3000,Melbourne (CBD),Joomak Korean Restaurant,"Unit 1, Basement 407 Swanston Street MELBOURNE VIC 3000",4511,Cafes and Restaurants,Seats - Indoor,92,144.9631796,-37.80895593,
2024,95,500323,500323,A'Beckett Tower 19-37 A'Beckett Street MELBOURNE VIC 3000,Melbourne (CBD),No. 1 Spicy Hot Pot,"Shop 1, 31 A'Beckett Street MELBOURNE VIC 3000",4511,Cafes and Restaurants,Seats - Indoor,22,144.9626101,-37.80894099,
2024,96,606671,105490,Building 12 RMIT University 394-412 Swanston Street MELBOURNE VIC 3000,Melbourne (CBD),The Bowen St Cafe,Part Level 2 Building 12 RMIT University 394-412 Swanston Street MELBOURNE VIC 3000,4511,Cafes and Restaurants,Seats - Indoor,20,144.9645435,-37.80818156,
2024,96,606672,105490,Building 14 RMIT University 414-418 Swanston Street MELBOURNE VIC 3000,Melbourne (CBD),tokyo yokocho,Part Level 2 Building 14 RMIT University 414-418 Swanston Street MELBOURNE VIC 3000,4511,Cafes and Restaurants,Seats - Indoor,48,144.9645435,-37.80818156,
2024,97,106367,106367,9-23 MacKenzie Street MELBOURNE VIC 3000,Melbourne (CBD),Karomi Cafe,19 MacKenzie Street MELBOURNE VIC 3000,4511,Cafes and Restaurants,Seats - Outdoor,6,144.9673948,-37.80768212,
2024,97,109677,109677,13A Victoria Street MELBOURNE VIC 3000,Melbourne (CBD),Han Guuk Guan,13A Victoria Street MELBOURNE VIC 3000,4511,Cafes and Restaurants,Seats - Indoor,100,144.9679821,-37.8075865,
2024,103,554417,554417,Infinity 8 Apartments 243-263 Franklin Street MELBOURNE VIC 3000,Melbourne (CBD),Diner On Franklyn,245 Franklin Street MELBOURNE VIC 3000,4511,Cafes and Restaurants,Seats - Indoor,20,144.9566626,-37.80967008,
2024,103,621414,621414,218-236 A'Beckett Street MELBOURNE VIC 3000,Melbourne (CBD),Tokyo 7 Japanese Restaurant,7 Frederick Way MELBOURNE VIC 3000,4511,Cafes and Restaurants,Seats - Indoor,46,144.9566012,-37.81015871,
2024,104,103219,103219,413-417 Elizabeth Street MELBOURNE VIC 3000,Melbourne (CBD),Top Tea,"Shop 2, 413-417 Elizabeth Street MELBOURNE VIC 3000",4511,Cafes and Restaurants,Seats - Outdoor,8,144.9605226,-37.80918797,
2024,104,103220,103220,419 Elizabeth Street MELBOURNE VIC 3000,Melbourne (CBD),Biang Biang Elizabeth,419 Elizabeth Street MELBOURNE VIC 3000,4511,Cafes and Restaurants,Seats - Indoor,40,144.9604891,-37.80911596,
2024,104,103223,103223,427 Elizabeth Street MELBOURNE VIC 3000,Melbourne (CBD),Shu Ramen Elizabeth,427 Elizabeth Street MELBOURNE VIC 3000,4511,Cafes and Restaurants,Seats - Indoor,32,144.9604244,-37.80897533,
2024,104,103225,103225,433-435 Elizabeth Street MELBOURNE VIC 3000,Melbourne (CBD),Rose Garden Barbecue Shop,435 Elizabeth Street MELBOURNE VIC 3000,4511,Cafes and Restaurants,Seats - Indoor,32,144.9603439,-37.8088586,
2024,104,103226,103226,437-439 Elizabeth Street MELBOURNE VIC 3000,Melbourne (CBD),Menya Ramen,Ground 437-439 Elizabeth Street MELBOURNE VIC 3000,4511,Cafes and Restaurants,Seats - Indoor,94,144.9602369,-37.80880991,
2024,104,103228,103228,449-451 Elizabeth Street MELBOURNE VIC 3000,Melbourne (CBD),Malaysian Laksa House,Ground 449 Elizabeth Street MELBOURNE VIC 3000,4511,Cafes and Restaurants,Seats - Indoor,54,144.9602158,-37.80856366,
2024,104,104084,104084,151-165 Franklin Street MELBOURNE VIC 3000,Melbourne (CBD),Ichigo,"Shop 3, 155 Franklin Street MELBOURNE VIC 3000",4511,Cafes and Restaurants,Seats - Outdoor,50,144.9595754,-37.80904835,
2024,104,104084,104084,151-165 Franklin Street MELBOURNE VIC 3000,Melbourne (CBD),Jojo Little Kitchen,"Shop G2, 118 A'Beckett Street MELBOURNE VIC 3000",4511,Cafes and Restaurants,Seats - Indoor,34,144.9595754,-37.80904835,
2024,104,104084,104084,151-165 Franklin Street MELBOURNE VIC 3000,Melbourne (CBD),Lucky Guys Claypot City,"Shop G3, 163 Franklin Street MELBOURNE VIC 3000",4511,Cafes and Restaurants,Seats - Indoor,20,144.9595754,-37.80904835,
2024,104,104084,104084,151-165 Franklin Street MELBOURNE VIC 3000,Melbourne (CBD),Yoi,"Shop G1, 163 Franklin Street MELBOURNE VIC 3000",4511,Cafes and Restaurants,Seats - Outdoor,36,144.9595754,-37.80904835,
2024,105,103303,103303,410-420 Elizabeth Street MELBOURNE VIC 3000,Melbourne (CBD),Nene Chicken,"Shop S2, 410 Elizabeth Street MELBOURNE VIC 3000",4511,Cafes and Restaurants,Seats - Indoor,18,144.9611573,-37.80894909,
2024,113,110671,108118,133-159 Victoria Street MELBOURNE VIC 3000,Melbourne (CBD),Alex Canteen,157-159 Victoria Street MELBOURNE VIC 3000,4511,Cafes and Restaurants,Seats - Indoor,48,144.9572055,-37.80765748,
2024,113,110671,108118,133-159 Victoria Street MELBOURNE VIC 3000,Melbourne (CBD),Hideaway Melbourne,133-135 Victoria Street MELBOURNE VIC 3000,4511,Cafes and Restaurants,Seats - Indoor,14,144.9572055,-37.80765748,
2024,113,110671,108118,133-159 Victoria Street MELBOURNE VIC 3000,Melbourne (CBD),Hideaway Melbourne,133-135 Victoria Street MELBOURNE VIC 3000,4511,Cafes and Restaurants,Seats - Outdoor,6,144.9572055,-37.80765748,
2024,113,110673,108118,83-129 Victoria Street MELBOURNE VIC 3000,Melbourne (CBD),Market Espresso & Trolley Hire,Trolley Hire Queen Victoria Market Victoria Street MELBOURNE VIC 3000,4511,Cafes and Restaurants,Seats - Indoor,42,144.9572055,-37.80765748,
2024,113,110673,108118,83-129 Victoria Street MELBOURNE VIC 3000,Melbourne (CBD),Market Lane Coffee,83-85 Victoria Street MELBOURNE VIC 3000,4511,Cafes and Restaurants,Seats - Indoor,4,144.9572055,-37.80765748,
2024,113,110679,108118,Shed F Queen Victoria Market 66 Peel Street MELBOURNE VIC 3000,Melbourne (CBD),Romeo Takeaway Cafe,"Stall 7-8, Shed F Queen Victoria Market 66 Peel Street MELBOURNE VIC 3000",4511,Cafes and Restaurants,Seats - Outdoor,20,144.9572055,-37.80765748,
2024,113,110688,108118,65-81 Victoria Street MELBOURNE VIC 3000,Melbourne (CBD),Drums Sri Lankan Street Food,71 Victoria Street MELBOURNE VIC 3000,4511,Cafes and Restaurants,Seats - Indoor,12,144.9572055,-37.80765748,
2024,113,110688,108118,65-81 Victoria Street MELBOURNE VIC 3000,Melbourne (CBD),Drums Sri Lankan Street Food,71 Victoria Street MELBOURNE VIC 3000,4511,Cafes and Restaurants,Seats - Outdoor,12,144.9572055,-37.80765748,
2024,113,110688,108118,65-81 Victoria Street MELBOURNE VIC 3000,Melbourne (CBD),El Rincon,69 Victoria Street MELBOURNE VIC 3000,4511,Cafes and Restaurants,Seats - Indoor,18,144.9572055,-37.80765748,
2024,113,110688,108118,65-81 Victoria Street MELBOURNE VIC 3000,Melbourne (CBD),El Rincon,69 Victoria Street MELBOURNE VIC 3000,4511,Cafes and Restaurants,Seats - Outdoor,12,144.9572055,-37.80765748,
2024,113,110688,108118,65-81 Victoria Street MELBOURNE VIC 3000,Melbourne (CBD),Saltwater Sushi And Oyster Bar,79 Victoria Street MELBOURNE VIC 3000,4511,Cafes and Restaurants,Seats - Outdoor,12,144.9572055,-37.80765748,
2024,113,110690,108118,507-523 Elizabeth Street MELBOURNE VIC 3000,Melbourne (CBD),Kenangan,507 Elizabeth Street MELBOURNE VIC 3000,4511,Cafes and Restaurants,Seats - Indoor,30,144.9572055,-37.80765748,
2024,113,110690,108118,507-523 Elizabeth Street MELBOURNE VIC 3000,Melbourne (CBD),Supersede Coffee,519-521 Elizabeth Street MELBOURNE VIC 3000,4511,Cafes and Restaurants,Seats - Indoor,23,144.9572055,-37.80765748,
2024,114,103233,103233,487 Elizabeth Street MELBOURNE VIC 3000,Melbourne (CBD),Pondok Rempah,487 Elizabeth Street MELBOURNE VIC 3000,4511,Cafes and Restaurants,Seats - Indoor,42,144.9597916,-37.8076029,
2024,114,103234,103234,489-499 Elizabeth Street MELBOURNE VIC 3000,Melbourne (CBD),Jasper Kitchen,"Shop 1, 489-499 Elizabeth Street MELBOURNE VIC 3000",4511,Cafes and Restaurants,Seats - Outdoor,6,144.9596331,-37.80750344,
2024,114,104095,104095,Stargate Apartments 114-122 Franklin Street MELBOURNE VIC 3000,Melbourne (CBD),Wong's Lucky Bar,114-116 Franklin Street MELBOURNE VIC 3000,4511,Cafes and Restaurants,Seats - Indoor,74,144.9589366,-37.80819713,
2024,114,109492,109492,93-129 Therry Street MELBOURNE VIC 3000,Melbourne (CBD),Mansae,16 Dhanga Djeembana Walk MELBOURNE VIC 3000,4511,Cafes and Restaurants,Seats - Indoor,150,144.9590886,-37.8076845,
2024,114,109492,109492,93-129 Therry Street MELBOURNE VIC 3000,Melbourne (CBD),Lovey Patisserie Cafe / X Playground,26 Berrbang Lane MELBOURNE VIC 3000,4511,Cafes and Restaurants,Seats - Indoor,25,144.9590886,-37.8076845,
2024,114,109493,109493,131-151 Therry Street MELBOURNE VIC 3000,Melbourne (CBD),St Ali & The Queen,1 Dhanga Djeembana Walk MELBOURNE VIC 3000,4511,Cafes and Restaurants,Seats - Indoor,20,144.9584613,-37.80788769,
2024,114,109493,109493,131-151 Therry Street MELBOURNE VIC 3000,Melbourne (CBD),The Brick Lane Market,466 Queen Street MELBOURNE VIC 3000,4511,Cafes and Restaurants,Seats - Outdoor,25,144.9584613,-37.80788769,
2024,114,511516,511516,469 Elizabeth Street MELBOURNE VIC 3000,Melbourne (CBD),Sarawak Kitchen,469 Elizabeth Street MELBOURNE VIC 3000,4511,Cafes and Restaurants,Seats - Indoor,45,144.9599695,-37.807983,
2024,114,511518,511518,471 Elizabeth Street MELBOURNE VIC 3000,Melbourne (CBD),My Dumpling Meal,471 Elizabeth Street MELBOURNE VIC 3000,4511,Cafes and Restaurants,Seats - Outdoor,10,144.9599508,-37.80794087,
2024,114,511518,511518,471 Elizabeth Street MELBOURNE VIC 3000,Melbourne (CBD),My Dumpling Meal,471 Elizabeth Street MELBOURNE VIC 3000,4511,Cafes and Restaurants,Seats - Indoor,30,144.9599508,-37.80794087,
2024,115,604778,587480,Verve501 Apartments 483 Swanston Street MELBOURNE VIC 3000,Melbourne (CBD),Nisa's Thai Street Food,491-493 Swanston Street MELBOURNE VIC 3000,4511,Cafes and Restaurants,Seats - Outdoor,14,144.9620907,-37.80728963,
2024,115,604778,587480,Verve501 Apartments 483 Swanston Street MELBOURNE VIC 3000,Melbourne (CBD),Xiangli Cuisine,479 Swanston Street MELBOURNE VIC 3000,4511,Cafes and Restaurants,Seats - Indoor,26,144.9620907,-37.80728963,
2024,131,103978,103978,18-38 Siddeley Street DOCKLANDS VIC 3008,Docklands,Byblos Bar & Restaurant,"Shop 12, Ground 18-38 Siddeley Street DOCKLANDS VIC 3008",4511,Cafes and Restaurants,Seats - Indoor,200,144.9538184,-37.82273183,
2024,131,103978,103978,18-38 Siddeley Street DOCKLANDS VIC 3008,Docklands,Degani Bakery Cafe,"Shop 1, Ground 18-38 Siddeley Street DOCKLANDS VIC 3008",4511,Cafes and Restaurants,Seats - Indoor,72,144.9538184,-37.82273183,
2024,205,104469,104469,114-152 Grattan Street CARLTON VIC 3053,Carlton,Schnitz Melbourne Connect,"Shop D, Ground 700 Swanston Street CARLTON VIC 3053",4511,Cafes and Restaurants,Seats - Outdoor,16,144.9648282,-37.7999972,
2024,205,104469,104469,114-152 Grattan Street CARLTON VIC 3053,Carlton,Shuji Sushi,"Shop B, Ground 700 Swanston Street CARLTON VIC 3053",4511,Cafes and Restaurants,Seats - Outdoor,30,144.9648282,-37.7999972,
2024,205,512713,512713,Kathleen Syme Library and Community Centre 249-263 Faraday Street CARLTON VIC 3053,Carlton,Wild Timor Coffee Carlton,Part 251 Faraday Street CARLTON VIC 3053,4511,Cafes and Restaurants,Seats - Outdoor,24,144.9652584,-37.7987209,
2024,205,512713,512713,Kathleen Syme Library and Community Centre 249-263 Faraday Street CARLTON VIC 3053,Carlton,Wild Timor Coffee Carlton,Part 251 Faraday Street CARLTON VIC 3053,4511,Cafes and Restaurants,Seats - Indoor,17,144.9652584,-37.7987209,
2024,206,106118,106118,219-221 Lygon Street CARLTON VIC 3053,Carlton,Papa Gino's Pizza Restaurant,219-221 Lygon Street CARLTON VIC 3053,4511,Cafes and Restaurants,Seats - Indoor,95,144.9667173,-37.80018973,
2024,206,106118,106118,219-221 Lygon Street CARLTON VIC 3053,Carlton,Papa Gino's Pizza Restaurant,219-221 Lygon Street CARLTON VIC 3053,4511,Cafes and Restaurants,Seats - Outdoor,40,144.9667173,-37.80018973,
2024,206,106120,106120,225-229 Lygon Street CARLTON VIC 3053,Carlton,Cafe Corretto,227 Lygon Street CARLTON VIC 3053,4511,Cafes and Restaurants,Seats - Outdoor,30,144.966741,-37.80004558,
2024,207,103701,103701,222-224 Faraday Street CARLTON VIC 3053,Carlton,Di Stasio Pizzeria,Part Ground 224 Faraday Street CARLTON VIC 3053,4511,Cafes and Restaurants,Seats - Indoor,170,144.9668635,-37.79829108,
2024,207,106142,106142,291-299 Lygon Street CARLTON VIC 3053,Carlton,King & Godfree,293 Lygon Street CARLTON VIC 3053,4511,Cafes and Restaurants,Seats - Indoor,200,144.9670411,-37.79838828,
2024,207,106149,106149,323 Lygon Street CARLTON VIC 3053,Carlton,Milk The Cow Licensed Fromagerie,323 Lygon Street CARLTON VIC 3053,4511,Cafes and Restaurants,Seats - Outdoor,20,144.9671258,-37.79777439,
2024,207,106153,106153,331-335 Lygon Street CARLTON VIC 3053,Carlton,Jimmy Watson's Wine Bar,331-335 Lygon Street CARLTON VIC 3053,4511,Cafes and Restaurants,Seats - Indoor,120,144.9671779,-37.7975082,
2024,207,106154,106154,337-343 Lygon Street CARLTON VIC 3053,Carlton,Intersection Cafe,341-343 Lygon Street CARLTON VIC 3053,4511,Cafes and Restaurants,Seats - Indoor,39,144.9672287,-37.79734681,
2024,207,106154,106154,337-343 Lygon Street CARLTON VIC 3053,Carlton,Intersection Cafe,341-343 Lygon Street CARLTON VIC 3053,4511,Cafes and Restaurants,Seats - Outdoor,4,144.9672287,-37.79734681,
2024,208,101660,101660,330-332 Cardigan Street CARLTON VIC 3053,Carlton,Le Miel Et La Lune,330 Cardigan Street CARLTON VIC 3053,4511,Cafes and Restaurants,Seats - Outdoor,8,144.9663778,-37.79685803,
2024,212,106871,102697,478 Drummond Street CARLTON VIC 3053,Carlton,Adonai Foods,Shop 478 Drummond Street CARLTON VIC 3053,4511,Cafes and Restaurants,Seats - Indoor,80,144.9690954,-37.79465838,
2024,212,633373,633373,497-513 Rathdowne Street CARLTON VIC 3053,Carlton,Rathdowne & Reeves Cafe,Part Ground 497-513 Rathdowne Street CARLTON VIC 3053,4511,Cafes and Restaurants,Seats - Outdoor,22,144.9707673,-37.79366098,
2024,212,633373,633373,497-513 Rathdowne Street CARLTON VIC 3053,Carlton,Rathdowne & Reeves Cafe,Part Ground 497-513 Rathdowne Street CARLTON VIC 3053,4511,Cafes and Restaurants,Seats - Indoor,48,144.9707673,-37.79366098,
2024,216,103101,103101,161-169 Elgin Street CARLTON VIC 3053,Carlton,Sunhands,Ground 169 Elgin Street CARLTON VIC 3053,4511,Cafes and Restaurants,Seats - Indoor,30,144.969295,-37.79757961,
2024,217,102686,102686,313-315 Drummond Street CARLTON VIC 3053,Carlton,Masani Italian Dining & Terrace,313-315 Drummond Street CARLTON VIC 3053,4511,Cafes and Restaurants,Seats - Indoor,60,144.968492,-37.79837995,
2024,217,103703,103703,198-204 Faraday Street CARLTON VIC 3053,Carlton,Crinitis Southern Italian Cuisine,Ground 198-204 Faraday Street CARLTON VIC 3053,4511,Cafes and Restaurants,Seats - Indoor,110,144.9678378,-37.79850637,
2024,217,103703,103703,198-204 Faraday Street CARLTON VIC 3053,Carlton,Crinitis Southern Italian Cuisine,Ground 198-204 Faraday Street CARLTON VIC 3053,4511,Cafes and Restaurants,Seats - Outdoor,86,144.9678378,-37.79850637,
2024,217,106193,106193,368-386 Lygon Street CARLTON VIC 3053,Carlton,Brunetti Classico Carlton,"Shop 17-18, 368-384 Lygon Street CARLTON VIC 3053",4511,Cafes and Restaurants,Seats - Indoor,300,144.9681789,-37.79803089,
2024,217,106195,106195,364 Lygon Street CARLTON VIC 3053,Carlton,Sea Salt Kitchen,364 Lygon Street CARLTON VIC 3053,4511,Cafes and Restaurants,Seats - Indoor,50,144.9676437,-37.79828024,
2024,217,511124,511124,183 Elgin Street CARLTON VIC 3053,Carlton,Gemma Simply Italian,183 Elgin Street CARLTON VIC 3053,4511,Cafes and Restaurants,Seats - Outdoor,15,144.9683841,-37.79752965,
2024,217,511124,511124,183 Elgin Street CARLTON VIC 3053,Carlton,Gemma Simply Italian,183 Elgin Street CARLTON VIC 3053,4511,Cafes and Restaurants,Seats - Indoor,55,144.9683841,-37.79752965,
2024,218,102685,102685,295-297 Drummond Street CARLTON VIC 3053,Carlton,Doc Pizza & Mozarella Bar,295-297 Drummond Street CARLTON VIC 3053,4511,Cafes and Restaurants,Seats - Outdoor,40,144.9684438,-37.7989855,
2024,218,103689,103689,201-203 Faraday Street CARLTON VIC 3053,Carlton,Shakahari Vegetarian Restaurant,201-203 Faraday Street CARLTON VIC 3053,4511,Cafes and Restaurants,Seats - Outdoor,20,144.967803,-37.79900338,
2024,218,104477,104477,48-50 Grattan Street CARLTON VIC 3053,Carlton,Kaprica,48-50 Grattan Street CARLTON VIC 3053,4511,Cafes and Restaurants,Seats - Outdoor,4,144.96788,-37.80059699,
2024,218,106197,106197,350 Lygon Street CARLTON VIC 3053,Carlton,Grill'd Healthy Burgers,350 Lygon Street CARLTON VIC 3053,4511,Cafes and Restaurants,Seats - Indoor,56,144.9675264,-37.79887015,
2024,218,106206,106206,326-328 Lygon Street CARLTON VIC 3053,Carlton,DOC Espresso,Gnd & Flr1 326 Lygon Street CARLTON VIC 3053,4511,Cafes and Restaurants,Seats - Indoor,50,144.9674735,-37.79932164,
2024,218,106212,106212,306-308 Lygon Street CARLTON VIC 3053,Carlton,"Johnny, Vince And Sam's",Ground 306-308 Lygon Street CARLTON VIC 3053,4511,Cafes and Restaurants,Seats - Indoor,225,144.9674164,-37.79978612,
2024,218,106221,106221,280 Lygon Street CARLTON VIC 3053,Carlton,Zeus Street Greek,280 Lygon Street CARLTON VIC 3053,4511,Cafes and Restaurants,Seats - Outdoor,24,144.9673183,-37.80036743,
2024,218,106221,106221,280 Lygon Street CARLTON VIC 3053,Carlton,Zeus Street Greek,280 Lygon Street CARLTON VIC 3053,4511,Cafes and Restaurants,Seats - Indoor,28,144.9673183,-37.80036743,
2024,219,108188,108188,319-323 Rathdowne Street CARLTON VIC 3053,Carlton,East Imperial,323 Rathdowne Street CARLTON VIC 3053,4511,Cafes and Restaurants,Seats - Indoor,140,144.969881,-37.79918387,
2024,224,108247,108247,114-116 Rathdowne Street CARLTON VIC 3053,Carlton,Paris Go Bistro,114-116 Rathdowne Street CARLTON VIC 3053,4511,Cafes and Restaurants,Seats - Outdoor,4,144.9708841,-37.79695652,
2024,225,108237,108237,158 Rathdowne Street CARLTON VIC 3053,Carlton,Fenton Bistro,Ground 158 Rathdowne Street CARLTON VIC 3053,4511,Cafes and Restaurants,Seats - Outdoor,8,144.9710862,-37.79578979,
2024,226,108229,108229,178 Rathdowne Street CARLTON VIC 3053,Carlton,Sushi Ten,178 Rathdowne Street CARLTON VIC 3053,4511,Cafes and Restaurants,Seats - Indoor,24,144.9711835,-37.79518777,
2024,226,108230,108230,176 Rathdowne Street CARLTON VIC 3053,Carlton,Thai 29 Carlton,176 Rathdowne Street CARLTON VIC 3053,4511,Cafes and Restaurants,Seats - Indoor,50,144.9711745,-37.79523278,
2024,226,108230,108230,176 Rathdowne Street CARLTON VIC 3053,Carlton,Thai 29 Carlton,176 Rathdowne Street CARLTON VIC 3053,4511,Cafes and Restaurants,Seats - Outdoor,8,144.9711745,-37.79523278,
2024,226,108233,108233,168-170 Rathdowne Street CARLTON VIC 3053,Carlton,The Olive Jar,168-170 Rathdowne Street CARLTON VIC 3053,4511,Cafes and Restaurants,Seats - Indoor,55,144.9711497,-37.7953809,
2024,226,108233,108233,168-170 Rathdowne Street CARLTON VIC 3053,Carlton,The Olive Jar,168-170 Rathdowne Street CARLTON VIC 3053,4511,Cafes and Restaurants,Seats - Outdoor,20,144.9711497,-37.7953809,
2024,226,108236,108236,160-162 Rathdowne Street CARLTON VIC 3053,Carlton,Bossy Beans,160-162 Rathdowne Street CARLTON VIC 3053,4511,Cafes and Restaurants,Seats - Outdoor,12,144.9711231,-37.79553609,
2024,226,108236,108236,160-162 Rathdowne Street CARLTON VIC 3053,Carlton,Bossy Beans,160-162 Rathdowne Street CARLTON VIC 3053,4511,Cafes and Restaurants,Seats - Indoor,35,144.9711231,-37.79553609,
2024,232,106944,106944,161-163 Nicholson Street CARLTON VIC 3053,Carlton,Al Dente Enoteca,Part 161-163 Nicholson Street CARLTON VIC 3053,4511,Cafes and Restaurants,Seats - Indoor,66,144.9748066,-37.7963885,
2024,232,106944,106944,161-163 Nicholson Street CARLTON VIC 3053,Carlton,Al Dente Enoteca,Part 161-163 Nicholson Street CARLTON VIC 3053,4511,Cafes and Restaurants,Seats - Outdoor,12,144.9748066,-37.7963885,
2024,232,106944,106944,161-163 Nicholson Street CARLTON VIC 3053,Carlton,Al Dente Sapori,Part 161-163 Nicholson Street CARLTON VIC 3053,4511,Cafes and Restaurants,Seats - Outdoor,12,144.9748066,-37.7963885,
2024,239,107548,107548,222-224 Pelham Street MELBOURNE VIC 3000,Carlton,Books N Bites Cafe,Ground 224 Pelham Street MELBOURNE VIC 3000,4511,Cafes and Restaurants,Seats - Indoor,60,144.9583287,-37.80169537,
2024,240,101052,101052,212 Berkeley Street CARLTON VIC 3053,Carlton,Haymarket Place,Ground 212 Berkeley Street CARLTON VIC 3053,4511,Cafes and Restaurants,Seats - Outdoor,10,144.9589984,-37.80052523,
2024,240,104466,104466,Alan Gilbert Building - Bld 104 153-163 Barry Street CARLTON VIC 3053,Carlton,Baretto Cafe,Ground 161 Barry Street CARLTON VIC 3053,4511,Cafes and Restaurants,Seats - Outdoor,15,144.9592806,-37.80023307,
2024,240,107550,107550,156-180 Berkeley Street CARLTON VIC 3053,Carlton,Cafe Commercio,Part Ground 156-180 Berkeley Street CARLTON VIC 3053,4511,Cafes and Restaurants,Seats - Outdoor,20,144.9588203,-37.80155731,
2024,243,104455,104455,167 Grattan Street CARLTON VIC 3053,Carlton,Best tian shan,167 Grattan Street CARLTON VIC 3053,4511,Cafes and Restaurants,Seats - Indoor,80,144.9632971,-37.80058304,
2024,243,109330,109330,743-751 Swanston Street CARLTON VIC 3053,Carlton,KFC Carlton,"Shop 2, 743-751 Swanston Street CARLTON VIC 3053",4511,Cafes and Restaurants,Seats - Outdoor,15,144.9636423,-37.8006201,
2024,245,104450,104450,251-257 Cardigan Street CARLTON VIC 3053,Carlton,Gyoza San,"Shop 3, Ground 121 Grattan Street CARLTON VIC 3053",4511,Cafes and Restaurants,Seats - Outdoor,12,144.9651037,-37.80077102,
2024,245,104450,104450,251-257 Cardigan Street CARLTON VIC 3053,Carlton,Rice Bar Not Only Rice,"Shop 1, Ground 121 Grattan Street CARLTON VIC 3053",4511,Cafes and Restaurants,Seats - Indoor,58,144.9651037,-37.80077102,
